[
    {
        "N\u00b0POSTE": 1,
        "Nb Postes Vacants": "",
        "Quotit\u00e9": 100,
        "TYPE": "E",
        "SIGLE": "E.E.PU",
        "NOM": "HENRI MATISSE (RPI 22)",
        "ADRESSE": "4 ROUTE NATIONALE",
        "COMMUNE": "AUBENCHEUL AU BAC",
        "SUPPORT": "0119",
        "DISCIPLINE": "P0001",
        "CIRCONSCRIPTION": "CAMBRAI-CENTRE",
        "geo": {
            "lat": 50.25745569999999,
            "lng": 3.1588134
        }
    },
    {
        "N\u00b0POSTE": 2,
        "Nb Postes Vacants": 1,
        "Quotit\u00e9": 100,
        "TYPE": "E",
        "SIGLE": "E.E.PU",
        "NOM": "NIVEAU 2 (RPI 3)",
        "ADRESSE": "81 GRAND RUE",
        "COMMUNE": "BANTOUZELLE",
        "SUPPORT": "0119",
        "DISCIPLINE": "P0001",
        "CIRCONSCRIPTION": "CAMBRAI-SUD",
        "geo": {
            "lat": 50.0633159,
            "lng": 3.2073231
        }
    },
    {
        "N\u00b0POSTE": 3,
        "Nb Postes Vacants": 1,
        "Quotit\u00e9": 100,
        "TYPE": "E",
        "SIGLE": "E.E.PU",
        "NOM": "NIVEAU 2 (RPI 17)",
        "ADRESSE": "RUE DE L ECOLE",
        "COMMUNE": "BLECOURT",
        "SUPPORT": "0119",
        "DISCIPLINE": "P0001",
        "CIRCONSCRIPTION": "CAMBRAI-CENTRE",
        "lat": 50.2200639,
        "lng": 3.2115808,
        "geo": {
            "lat": 50.2200639,
            "lng": 3.2115808
        }
    },
    {
        "N\u00b0POSTE": 4,
        "Nb Postes Vacants": "",
        "Quotit\u00e9": 100,
        "TYPE": "E",
        "SIGLE": "E.E.PU",
        "NOM": "(RPI 14)",
        "ADRESSE": "11 RUE DE LA MAIRIE",
        "COMMUNE": "BOULOGNE SUR HELPE",
        "SUPPORT": "0119",
        "DISCIPLINE": "P0001",
        "CIRCONSCRIPTION": "AVESNES-FOURMIES",
        "lat": 50.08039309999999,
        "lng": 3.8954673,
        "geo": {
            "lat": 50.08039309999999,
            "lng": 3.8954673
        }
    },
    {
        "N\u00b0POSTE": 5,
        "Nb Postes Vacants": 1,
        "Quotit\u00e9": 100,
        "TYPE": "E",
        "SIGLE": "E.E.PU",
        "NOM": "NIVEAU 2 (RPI 2)",
        "ADRESSE": "16 TER ROUTE NATIONALE",
        "COMMUNE": "BOURSIES",
        "SUPPORT": "0119",
        "DISCIPLINE": "P0001",
        "CIRCONSCRIPTION": "CAMBRAI-SUD",
        "lat": 50.1406066,
        "lng": 3.0353473,
        "geo": {
            "lat": 50.1406066,
            "lng": 3.0353473
        }
    },
    {
        "N\u00b0POSTE": 6,
        "Nb Postes Vacants": 1,
        "Quotit\u00e9": 100,
        "TYPE": "E",
        "SIGLE": "E.E.PU",
        "NOM": "J.DE COURTRAI NIV.2 (RPI 11)",
        "ADRESSE": "1 RUE DE LA PLACE",
        "COMMUNE": "DIMECHAUX",
        "SUPPORT": "0119",
        "DISCIPLINE": "P0001",
        "CIRCONSCRIPTION": "AVESNES-JEUMONT",
        "lat": 50.1954451,
        "lng": 4.0418907,
        "geo": {
            "lat": 50.1954451,
            "lng": 4.0418907
        }
    },
    {
        "N\u00b0POSTE": 7,
        "Nb Postes Vacants": "",
        "Quotit\u00e9": 100,
        "TYPE": "E",
        "SIGLE": "E.P.PU",
        "NOM": "",
        "ADRESSE": "HEER STRAETE",
        "COMMUNE": "DRINCHAM",
        "SUPPORT": "0119",
        "DISCIPLINE": "P0001",
        "CIRCONSCRIPTION": "DUNKERQUE-WORMHOUT",
        "lat": 50.910571,
        "lng": 2.32076,
        "geo": {
            "lat": 50.910571,
            "lng": 2.32076
        }
    },
    {
        "N\u00b0POSTE": 8,
        "Nb Postes Vacants": "",
        "Quotit\u00e9": 100,
        "TYPE": "E",
        "SIGLE": "E.P.PU",
        "NOM": "AUGUSTE HANON",
        "ADRESSE": "5 RUE DE LA FONTAINE",
        "COMMUNE": "EPPE SAUVAGE",
        "SUPPORT": "0119",
        "DISCIPLINE": "P0001",
        "CIRCONSCRIPTION": "AVESNES-JEUMONT",
        "lat": 50.1203631,
        "lng": 4.1824001,
        "geo": {
            "lat": 50.1203631,
            "lng": 4.1824001
        }
    },
    {
        "N\u00b0POSTE": 9,
        "Nb Postes Vacants": "",
        "Quotit\u00e9": 100,
        "TYPE": "E",
        "SIGLE": "E.E.PU",
        "NOM": "NIVEAU 2 (RPI 19)",
        "ADRESSE": "14 LA PLACE",
        "COMMUNE": "OXELAERE",
        "SUPPORT": "0119",
        "DISCIPLINE": "P0001",
        "CIRCONSCRIPTION": "DUNKERQUE-WORMHOUT",
        "lat": 50.788352,
        "lng": 2.476042,
        "geo": {
            "lat": 50.788352,
            "lng": 2.476042
        }
    },
    {
        "N\u00b0POSTE": 10,
        "Nb Postes Vacants": "",
        "Quotit\u00e9": 100,
        "TYPE": "E",
        "SIGLE": "E.E.PU",
        "NOM": "NIVEAU 2 (RPI 1)",
        "ADRESSE": "RUE DES ECOLES",
        "COMMUNE": "GONNELIEU",
        "SUPPORT": "0119",
        "DISCIPLINE": "P0001",
        "CIRCONSCRIPTION": "CAMBRAI-SUD",
        "lat": 50.0573898,
        "lng": 3.1536357,
        "geo": {
            "lat": 50.0573898,
            "lng": 3.1536357
        }
    },
    {
        "N\u00b0POSTE": 11,
        "Nb Postes Vacants": "",
        "Quotit\u00e9": 100,
        "TYPE": "E",
        "SIGLE": "E.E.PU",
        "NOM": "(RPI 19)",
        "ADRESSE": "7 LA PLACE",
        "COMMUNE": "HARDIFORT",
        "SUPPORT": "0119",
        "DISCIPLINE": "P0001",
        "CIRCONSCRIPTION": "DUNKERQUE-WORMHOUT",
        "lat": 50.820101,
        "lng": 2.481071,
        "geo": {
            "lat": 50.820101,
            "lng": 2.481071
        }
    },
    {
        "N\u00b0POSTE": 12,
        "Nb Postes Vacants": "",
        "Quotit\u00e9": 100,
        "TYPE": "E",
        "SIGLE": "E.E.PU",
        "NOM": "(RPI 17)",
        "ADRESSE": "17 RUE DE BOURLON",
        "COMMUNE": "HAYNECOURT",
        "SUPPORT": "0119",
        "DISCIPLINE": "P0001",
        "CIRCONSCRIPTION": "CAMBRAI-CENTRE",
        "lat": 50.21178459999999,
        "lng": 3.1615519,
        "geo": {
            "lat": 50.21178459999999,
            "lng": 3.1615519
        }
    },
    {
        "N\u00b0POSTE": 13,
        "Nb Postes Vacants": "",
        "Quotit\u00e9": 100,
        "TYPE": "E",
        "SIGLE": "E.E.PU",
        "NOM": "(RPI 13)",
        "ADRESSE": "59 GRAND RUE",
        "COMMUNE": "NIERGNIES",
        "SUPPORT": "0119",
        "DISCIPLINE": "P0001",
        "CIRCONSCRIPTION": "CAMBRAI-CENTRE",
        "lat": 50.1467339,
        "lng": 3.2581845,
        "geo": {
            "lat": 50.1467339,
            "lng": 3.2581845
        }
    },
    {
        "N\u00b0POSTE": 14,
        "Nb Postes Vacants": "",
        "Quotit\u00e9": 100,
        "TYPE": "E",
        "SIGLE": "E.E.PU",
        "NOM": "NIVEAU 1 (RPI 16)",
        "ADRESSE": "2 BIS RUE DE L ECOLE",
        "COMMUNE": "NOYELLES SUR SAMBRE",
        "SUPPORT": "0119",
        "DISCIPLINE": "P0001",
        "CIRCONSCRIPTION": "AVESNES AULNOYE",
        "lat": 50.1566109,
        "lng": 3.8001846,
        "geo": {
            "lat": 50.1566109,
            "lng": 3.8001846
        }
    },
    {
        "N\u00b0POSTE": 15,
        "Nb Postes Vacants": "",
        "Quotit\u00e9": 100,
        "TYPE": "E",
        "SIGLE": "E.P.PU",
        "NOM": "",
        "ADRESSE": "55 LA PLACE",
        "COMMUNE": "OBRECHIES",
        "SUPPORT": "0119",
        "DISCIPLINE": "P0001",
        "CIRCONSCRIPTION": "AVESNES-JEUMONT",
        "lat": 50.22044169999999,
        "lng": 4.0250441,
        "geo": {
            "lat": 50.22044169999999,
            "lng": 4.0250441
        }
    },
    {
        "N\u00b0POSTE": 16,
        "Nb Postes Vacants": "",
        "Quotit\u00e9": 100,
        "TYPE": "E",
        "SIGLE": "E.E.PU",
        "NOM": "(RPI 7)",
        "ADRESSE": "80 RUE DE LA MAIRIE",
        "COMMUNE": "OCHTEZEELE",
        "SUPPORT": "0119",
        "DISCIPLINE": "P0001",
        "CIRCONSCRIPTION": "DUNKERQUE-WORMHOUT",
        "lat": 50.8178271,
        "lng": 2.4014574,
        "geo": {
            "lat": 50.8178271,
            "lng": 2.4014574
        }
    },
    {
        "N\u00b0POSTE": 17,
        "Nb Postes Vacants": "",
        "Quotit\u00e9": 100,
        "TYPE": "E",
        "SIGLE": "E.E.PU",
        "NOM": "(RPI 9)",
        "ADRESSE": "18 GRAND RUE",
        "COMMUNE": "SALESCHES",
        "SUPPORT": "0119",
        "DISCIPLINE": "P0001",
        "CIRCONSCRIPTION": "AVESNES-LE QUESNOY",
        "lat": 50.2043781,
        "lng": 3.5858297,
        "geo": {
            "lat": 50.2043781,
            "lng": 3.5858297
        }
    },
    {
        "N\u00b0POSTE": 18,
        "Nb Postes Vacants": "",
        "Quotit\u00e9": 100,
        "TYPE": "E",
        "SIGLE": "E.E.PU",
        "NOM": "MIXTE (RPI 17)",
        "ADRESSE": "20 RUE D'AMERIQUE",
        "COMMUNE": "SANCOURT",
        "SUPPORT": "0119",
        "DISCIPLINE": "P0001",
        "CIRCONSCRIPTION": "CAMBRAI-CENTRE",
        "lat": 50.2170773,
        "lng": 3.1926937,
        "geo": {
            "lat": 50.2170773,
            "lng": 3.1926937
        }
    },
    {
        "N\u00b0POSTE": 19,
        "Nb Postes Vacants": "",
        "Quotit\u00e9": 100,
        "TYPE": "E",
        "SIGLE": "E.P.PU",
        "NOM": "CENTRE",
        "ADRESSE": "28 RUE DE LA MAIRIE",
        "COMMUNE": "SEMERIES",
        "SUPPORT": "0119",
        "DISCIPLINE": "P0001",
        "CIRCONSCRIPTION": "AVESNES-FOURMIES",
        "lat": 50.11721,
        "lng": 4.002184,
        "geo": {
            "lat": 50.11721,
            "lng": 4.002184
        }
    },
    {
        "N\u00b0POSTE": 20,
        "Nb Postes Vacants": "",
        "Quotit\u00e9": 100,
        "TYPE": "E",
        "SIGLE": "E.E.PU",
        "NOM": "NIVEAU 2 (RPI 13)",
        "ADRESSE": "67 GRAND RUE",
        "COMMUNE": "SERANVILLERS FORENVILLE",
        "SUPPORT": "0119",
        "DISCIPLINE": "P0001",
        "CIRCONSCRIPTION": "CAMBRAI-CENTRE",
        "lat": 50.1227927,
        "lng": 3.278433,
        "geo": {
            "lat": 50.1227927,
            "lng": 3.278433
        }
    },
    {
        "N\u00b0POSTE": 21,
        "Nb Postes Vacants": "",
        "Quotit\u00e9": 100,
        "TYPE": "E",
        "SIGLE": "E.E.PU",
        "NOM": "(RPI 9)",
        "ADRESSE": "6 RUE DE L'EGLISE",
        "COMMUNE": "VENDEGIES AU BOIS",
        "SUPPORT": "0119",
        "DISCIPLINE": "P0001",
        "CIRCONSCRIPTION": "AVESNES-LE QUESNOY",
        "lat": 50.1789918,
        "lng": 3.5760211,
        "geo": {
            "lat": 50.1789918,
            "lng": 3.5760211
        }
    },
    {
        "N\u00b0POSTE": 22,
        "Nb Postes Vacants": "",
        "Quotit\u00e9": 100,
        "TYPE": "E",
        "SIGLE": "E.E.PU",
        "NOM": "NIVEAU 2 (RPI 11)",
        "ADRESSE": "RUE DES ECOLES",
        "COMMUNE": "WATTIGNIES LA VICTOIRE",
        "SUPPORT": "0119",
        "DISCIPLINE": "P0001",
        "CIRCONSCRIPTION": "AVESNES-JEUMONT",
        "lat": 50.199996,
        "lng": 4.010305,
        "geo": {
            "lat": 50.199996,
            "lng": 4.010305
        }
    },
    {
        "N\u00b0POSTE": 23,
        "Nb Postes Vacants": 1,
        "Quotit\u00e9": 100,
        "TYPE": "E",
        "SIGLE": "E.P.PU",
        "NOM": "HENRI MATISSE",
        "ADRESSE": "18 RUE DE WASNES",
        "COMMUNE": "WAVRECHAIN SOUS FAULX",
        "SUPPORT": "0119",
        "DISCIPLINE": "P0001",
        "CIRCONSCRIPTION": "VALENCIENNES-ESCAUDAIN",
        "lat": 50.272673,
        "lng": 3.2848047,
        "geo": {
            "lat": 50.272673,
            "lng": 3.2848047
        }
    },
    {
        "N\u00b0POSTE": 24,
        "Nb Postes Vacants": "",
        "Quotit\u00e9": 100,
        "TYPE": "E",
        "SIGLE": "E.E.PU",
        "NOM": "PIERRE DUEZ (RPI 14)",
        "ADRESSE": "2 ROUTE DE BOULOGNE",
        "COMMUNE": "HAUT LIEU",
        "SUPPORT": "0119",
        "DISCIPLINE": "P0001",
        "CIRCONSCRIPTION": "AVESNES-FOURMIES",
        "lat": 50.1014638,
        "lng": 3.9122563,
        "geo": {
            "lat": 50.1014638,
            "lng": 3.9122563
        }
    },
    {
        "N\u00b0POSTE": 25,
        "Nb Postes Vacants": "",
        "Quotit\u00e9": 100,
        "TYPE": "E",
        "SIGLE": "E.P.PU",
        "NOM": "CHAUFFOUR",
        "ADRESSE": "RUE DES ECOLES",
        "COMMUNE": "FLAUMONT WAUDRECHIES",
        "SUPPORT": "0119",
        "DISCIPLINE": "P0002",
        "CIRCONSCRIPTION": "AVESNES-FOURMIES",
        "lat": 50.127277,
        "lng": 3.967899,
        "geo": {
            "lat": 48.8489008,
            "lng": 2.3474804
        }
    },
    {
        "N\u00b0POSTE": 26,
        "Nb Postes Vacants": "",
        "Quotit\u00e9": 100,
        "TYPE": "E",
        "SIGLE": "E.P.PU",
        "NOM": "ALBERT FAVRESSE",
        "ADRESSE": "186 RUE SAINTE CATHERINE",
        "COMMUNE": "LEFFRINCKOUCKE",
        "SUPPORT": "0119",
        "DISCIPLINE": "P0002",
        "CIRCONSCRIPTION": "DUNKERQUE-CENTRE",
        "lat": 51.03602249999999,
        "lng": 2.463331,
        "geo": {
            "lat": 51.03602249999999,
            "lng": 2.463331
        }
    },
    {
        "N\u00b0POSTE": 27,
        "Nb Postes Vacants": "",
        "Quotit\u00e9": 100,
        "TYPE": "E",
        "SIGLE": "E.P.PU",
        "NOM": "",
        "ADRESSE": "2 LA PLACE",
        "COMMUNE": "AIBES",
        "SUPPORT": "0119",
        "DISCIPLINE": "P0002",
        "CIRCONSCRIPTION": "AVESNES-JEUMONT",
        "lat": 43.57993,
        "lng": 7.122633,
        "geo": {
            "lat": 43.57993,
            "lng": 7.122633
        }
    },
    {
        "N\u00b0POSTE": 28,
        "Nb Postes Vacants": "",
        "Quotit\u00e9": 100,
        "TYPE": "E",
        "SIGLE": "E.P.PU",
        "NOM": "LES PETITS CAILLOUX",
        "ADRESSE": "HAMEAU LE STEENT'JE",
        "COMMUNE": "BAILLEUL",
        "SUPPORT": "0119",
        "DISCIPLINE": "P0002",
        "CIRCONSCRIPTION": "DUNKERQUE-BAILLEUL",
        "lat": 50.7116339,
        "lng": 2.7291209,
        "geo": {
            "lat": 50.7116339,
            "lng": 2.7291209
        }
    },
    {
        "N\u00b0POSTE": 29,
        "Nb Postes Vacants": "",
        "Quotit\u00e9": 100,
        "TYPE": "E",
        "SIGLE": "E.P.PU",
        "NOM": "NIVEAU 1 (RPI 3)",
        "ADRESSE": "RUE DU MILIEU",
        "COMMUNE": "BANTEUX",
        "SUPPORT": "0119",
        "DISCIPLINE": "P0002",
        "CIRCONSCRIPTION": "CAMBRAI-SUD",
        "lat": 50.06150419999999,
        "lng": 3.1992017,
        "geo": {
            "lat": 50.06150419999999,
            "lng": 3.1992017
        }
    },
    {
        "N\u00b0POSTE": 30,
        "Nb Postes Vacants": "",
        "Quotit\u00e9": 100,
        "TYPE": "E",
        "SIGLE": "E.E.PU",
        "NOM": "NIVEAU 2",
        "ADRESSE": "3 RUELLE MAILLY",
        "COMMUNE": "BEAUFORT",
        "SUPPORT": "0119",
        "DISCIPLINE": "P0002",
        "CIRCONSCRIPTION": "AVESNES AULNOYE",
        "lat": 50.215204,
        "lng": 3.9661911,
        "geo": {
            "lat": 50.215204,
            "lng": 3.9661911
        }
    },
    {
        "N\u00b0POSTE": 31,
        "Nb Postes Vacants": "",
        "Quotit\u00e9": 100,
        "TYPE": "E",
        "SIGLE": "E.P.PU",
        "NOM": "NIVEAU 1",
        "ADRESSE": "36 RUE PASTEUR",
        "COMMUNE": "BEAUFORT",
        "SUPPORT": "0119",
        "DISCIPLINE": "P0002",
        "CIRCONSCRIPTION": "AVESNES AULNOYE",
        "lat": 43.549842,
        "lng": 7.029146,
        "geo": {
            "lat": 45.7171049,
            "lng": 6.574292
        }
    },
    {
        "N\u00b0POSTE": 32,
        "Nb Postes Vacants": "",
        "Quotit\u00e9": 100,
        "TYPE": "E",
        "SIGLE": "E.E.PU",
        "NOM": "NIVEAU 2 (RPI 20)",
        "ADRESSE": "2 ALLEE DE L'EGLISE",
        "COMMUNE": "BEAUREPAIRE SUR SAMBRE",
        "SUPPORT": "0119",
        "DISCIPLINE": "P0002",
        "CIRCONSCRIPTION": "AVESNES AULNOYE",
        "lat": 50.0621811,
        "lng": 3.793467499999999,
        "geo": {
            "lat": 50.0621811,
            "lng": 3.793467499999999
        }
    },
    {
        "N\u00b0POSTE": 33,
        "Nb Postes Vacants": "",
        "Quotit\u00e9": 100,
        "TYPE": "E",
        "SIGLE": "E.E.PU",
        "NOM": "(RPI 5)",
        "ADRESSE": "1 RUE GANTOIS",
        "COMMUNE": "BERMERIES",
        "SUPPORT": "0119",
        "DISCIPLINE": "P0002",
        "CIRCONSCRIPTION": "AVESNES-LE QUESNOY",
        "lat": 50.6268381,
        "lng": 3.0571654,
        "geo": {
            "lat": 50.6268381,
            "lng": 3.0571654
        }
    },
    {
        "N\u00b0POSTE": 34,
        "Nb Postes Vacants": "",
        "Quotit\u00e9": 100,
        "TYPE": "E",
        "SIGLE": "E.P.PU",
        "NOM": "EVARISTE VANDEWALLE",
        "ADRESSE": "138 GRAND RUE",
        "COMMUNE": "BERTHEN",
        "SUPPORT": "0119",
        "DISCIPLINE": "P0002",
        "CIRCONSCRIPTION": "DUNKERQUE-BAILLEUL",
        "lat": 50.778944,
        "lng": 2.689237,
        "geo": {
            "lat": 50.778944,
            "lng": 2.689237
        }
    },
    {
        "N\u00b0POSTE": 35,
        "Nb Postes Vacants": "",
        "Quotit\u00e9": 100,
        "TYPE": "E",
        "SIGLE": "E.P.PU",
        "NOM": "",
        "ADRESSE": "181 RUE DU BOIS",
        "COMMUNE": "BOUSIGNIES",
        "SUPPORT": "0119",
        "DISCIPLINE": "P0002",
        "CIRCONSCRIPTION": "VALENCIENNES-SAINT AMAND",
        "lat": 50.4342463,
        "lng": 3.3446647,
        "geo": {
            "lat": 50.4342463,
            "lng": 3.3446647
        }
    },
    {
        "N\u00b0POSTE": 36,
        "Nb Postes Vacants": "",
        "Quotit\u00e9": 100,
        "TYPE": "E",
        "SIGLE": "E.P.PU",
        "NOM": "CALMETTE",
        "ADRESSE": "1 RUE PITON",
        "COMMUNE": "BOUSSIERES EN CAMBRESIS",
        "SUPPORT": "0119",
        "DISCIPLINE": "P0002",
        "CIRCONSCRIPTION": "CAMBRAI-LE CATEAU",
        "lat": 50.1664494,
        "lng": 3.3660805,
        "geo": {
            "lat": 50.1664494,
            "lng": 3.3660805
        }
    },
    {
        "N\u00b0POSTE": 37,
        "Nb Postes Vacants": "",
        "Quotit\u00e9": 100,
        "TYPE": "E",
        "SIGLE": "E.P.PU",
        "NOM": "",
        "ADRESSE": "LA PLACE",
        "COMMUNE": "BROXEELE",
        "SUPPORT": "0119",
        "DISCIPLINE": "P0002",
        "CIRCONSCRIPTION": "DUNKERQUE-WORMHOUT",
        "lat": 50.829501,
        "lng": 2.320971,
        "geo": {
            "lat": 50.829501,
            "lng": 2.320971
        }
    },
    {
        "N\u00b0POSTE": 38,
        "Nb Postes Vacants": "",
        "Quotit\u00e9": 100,
        "TYPE": "E",
        "SIGLE": "E.P.PU",
        "NOM": "(RPI 7)",
        "ADRESSE": "156 LA PLACE",
        "COMMUNE": "BUYSSCHEURE",
        "SUPPORT": "0119",
        "DISCIPLINE": "P0002",
        "CIRCONSCRIPTION": "DUNKERQUE-WORMHOUT",
        "lat": 50.8034501,
        "lng": 2.3343572,
        "geo": {
            "lat": 50.8034501,
            "lng": 2.3343572
        }
    },
    {
        "N\u00b0POSTE": 39,
        "Nb Postes Vacants": "",
        "Quotit\u00e9": 100,
        "TYPE": "E",
        "SIGLE": "E.P.PU",
        "NOM": "",
        "ADRESSE": "GRAND PLACE",
        "COMMUNE": "CAGNONCLES",
        "SUPPORT": "0119",
        "DISCIPLINE": "P0002",
        "CIRCONSCRIPTION": "CAMBRAI-CENTRE",
        "lat": 50.19164689999999,
        "lng": 3.3088445,
        "geo": {
            "lat": 50.19164689999999,
            "lng": 3.3088445
        }
    },
    {
        "N\u00b0POSTE": 40,
        "Nb Postes Vacants": "",
        "Quotit\u00e9": 100,
        "TYPE": "E",
        "SIGLE": "E.P.PU",
        "NOM": "",
        "ADRESSE": "86 ROUTE NATIONALE",
        "COMMUNE": "CERFONTAINE",
        "SUPPORT": "0119",
        "DISCIPLINE": "P0002",
        "CIRCONSCRIPTION": "AVESNES-JEUMONT",
        "lat": 50.260673,
        "lng": 4.025749,
        "geo": {
            "lat": 50.260673,
            "lng": 4.025749
        }
    },
    {
        "N\u00b0POSTE": 41,
        "Nb Postes Vacants": 1,
        "Quotit\u00e9": 100,
        "TYPE": "E",
        "SIGLE": "E.P.PU",
        "NOM": "WEZ MACQUART",
        "ADRESSE": "1956 ROUTE NATIONALE",
        "COMMUNE": "LA CHAPELLE D ARMENTIERES",
        "SUPPORT": "0119",
        "DISCIPLINE": "P0002",
        "CIRCONSCRIPTION": "LILLE2-ARMENTIERES",
        "lat": 50.6595847,
        "lng": 2.9271617,
        "geo": {
            "lat": 50.6595847,
            "lng": 2.9271617
        }
    },
    {
        "N\u00b0POSTE": 42,
        "Nb Postes Vacants": 1,
        "Quotit\u00e9": 100,
        "TYPE": "E",
        "SIGLE": "E.P.PU",
        "NOM": "LES COQUELICOTS",
        "ADRESSE": "4 RUE DES FRERES BULKAEN",
        "COMMUNE": "COMINES",
        "SUPPORT": "0119",
        "DISCIPLINE": "P0002",
        "CIRCONSCRIPTION": "LILLE2-LOMME",
        "lat": 50.7405461,
        "lng": 3.0124748,
        "geo": {
            "lat": 50.7405461,
            "lng": 3.0124748
        }
    },
    {
        "N\u00b0POSTE": 43,
        "Nb Postes Vacants": "",
        "Quotit\u00e9": 100,
        "TYPE": "E",
        "SIGLE": "E.E.PU",
        "NOM": "NIVEAU 1 (RPI 2)",
        "ADRESSE": "4 PLACE DE LA MAIRIE",
        "COMMUNE": "DOIGNIES",
        "SUPPORT": "0119",
        "DISCIPLINE": "P0002",
        "CIRCONSCRIPTION": "CAMBRAI-SUD",
        "lat": 50.1283979,
        "lng": 3.0151365,
        "geo": {
            "lat": 50.1283979,
            "lng": 3.0151365
        }
    },
    {
        "N\u00b0POSTE": 44,
        "Nb Postes Vacants": "",
        "Quotit\u00e9": 100,
        "TYPE": "E",
        "SIGLE": "E.P.PU",
        "NOM": "",
        "ADRESSE": "2 CHEMIN MARGOT",
        "COMMUNE": "ECLAIBES",
        "SUPPORT": "0119",
        "DISCIPLINE": "P0002",
        "CIRCONSCRIPTION": "AVESNES AULNOYE",
        "lat": 50.2031593,
        "lng": 3.9326098,
        "geo": {
            "lat": 50.2031593,
            "lng": 3.9326098
        }
    },
    {
        "N\u00b0POSTE": 45,
        "Nb Postes Vacants": 1,
        "Quotit\u00e9": 100,
        "TYPE": "E",
        "SIGLE": "E.P.PU",
        "NOM": "",
        "ADRESSE": "724 R NATIONALE",
        "COMMUNE": "PRADELLES",
        "SUPPORT": "0119",
        "DISCIPLINE": "P0002",
        "CIRCONSCRIPTION": "DUNKERQUE-HAZEBROUCK",
        "lat": 50.73156299999999,
        "lng": 2.6052843,
        "geo": {
            "lat": 50.73156299999999,
            "lng": 2.6052843
        }
    },
    {
        "N\u00b0POSTE": 46,
        "Nb Postes Vacants": "",
        "Quotit\u00e9": 100,
        "TYPE": "E",
        "SIGLE": "E.P.PU",
        "NOM": "CELESTIN FREINET",
        "ADRESSE": "5 RUE DE L EGLISE",
        "COMMUNE": "ESTOURMEL",
        "SUPPORT": "0119",
        "DISCIPLINE": "P0002",
        "CIRCONSCRIPTION": "CAMBRAI-CENTRE",
        "lat": 50.1484013,
        "lng": 3.3203611,
        "geo": {
            "lat": 50.1484013,
            "lng": 3.3203611
        }
    },
    {
        "N\u00b0POSTE": 47,
        "Nb Postes Vacants": "",
        "Quotit\u00e9": 100,
        "TYPE": "E",
        "SIGLE": "E.E.PU",
        "NOM": "(RPI 27)",
        "ADRESSE": "1 PLACE DE LA MAIRIE",
        "COMMUNE": "ESWARS",
        "SUPPORT": "0119",
        "DISCIPLINE": "P0002",
        "CIRCONSCRIPTION": "CAMBRAI-LE CATEAU",
        "lat": 50.2197647,
        "lng": 3.2683844,
        "geo": {
            "lat": 50.2197647,
            "lng": 3.2683844
        }
    },
    {
        "N\u00b0POSTE": 48,
        "Nb Postes Vacants": "",
        "Quotit\u00e9": 100,
        "TYPE": "E",
        "SIGLE": "E.P.PU",
        "NOM": "",
        "ADRESSE": "RUE DU GENERAL DE GAULLE",
        "COMMUNE": "FOREST EN CAMBRESIS",
        "SUPPORT": "0119",
        "DISCIPLINE": "P0002",
        "CIRCONSCRIPTION": "CAMBRAI-LE CATEAU",
        "lat": 50.1406618,
        "lng": 3.5692206,
        "geo": {
            "lat": 50.1406618,
            "lng": 3.5692206
        }
    },
    {
        "N\u00b0POSTE": 49,
        "Nb Postes Vacants": "",
        "Quotit\u00e9": 100,
        "TYPE": "E",
        "SIGLE": "E.P.PU",
        "NOM": "RENE QUINCHON",
        "ADRESSE": "PLACE EMILE BIGORNE",
        "COMMUNE": "FRASNOY",
        "SUPPORT": "0119",
        "DISCIPLINE": "P0002",
        "CIRCONSCRIPTION": "AVESNES-LE QUESNOY",
        "lat": 41.0076312,
        "lng": -7.8855722,
        "geo": {
            "lat": 41.0076312,
            "lng": -7.8855722
        }
    },
    {
        "N\u00b0POSTE": 50,
        "Nb Postes Vacants": "",
        "Quotit\u00e9": 100,
        "TYPE": "E",
        "SIGLE": "E.P.PU",
        "NOM": "",
        "ADRESSE": "2432 RUE DU GRAND CHEMIN",
        "COMMUNE": "LA GORGUE",
        "SUPPORT": "0119",
        "DISCIPLINE": "P0002",
        "CIRCONSCRIPTION": "DUNKERQUE-BAILLEUL",
        "lat": 50.6207325,
        "lng": 2.7443104,
        "geo": {
            "lat": 50.6207325,
            "lng": 2.7443104
        }
    },
    {
        "N\u00b0POSTE": 51,
        "Nb Postes Vacants": "",
        "Quotit\u00e9": 100,
        "TYPE": "E",
        "SIGLE": "E.P.PU",
        "NOM": "PASTEUR",
        "ADRESSE": "2 RUE DE VERDUN",
        "COMMUNE": "GRUSON",
        "SUPPORT": "0119",
        "DISCIPLINE": "P0002",
        "CIRCONSCRIPTION": "LILLE3-RONCHIN",
        "lat": 50.5963581,
        "lng": 3.2047846,
        "geo": {
            "lat": 50.5963581,
            "lng": 3.2047846
        }
    },
    {
        "N\u00b0POSTE": 52,
        "Nb Postes Vacants": "",
        "Quotit\u00e9": 100,
        "TYPE": "E",
        "SIGLE": "E.P.PU",
        "NOM": "DE CATAINE",
        "ADRESSE": "41 RUE HENRI BARBUSSE",
        "COMMUNE": "HASNON",
        "SUPPORT": "0119",
        "DISCIPLINE": "P0002",
        "CIRCONSCRIPTION": "VALENCIENNES-SAINT AMAND",
        "lat": 50.41674949999999,
        "lng": 3.3743879,
        "geo": {
            "lat": 50.41674949999999,
            "lng": 3.3743879
        }
    },
    {
        "N\u00b0POSTE": 53,
        "Nb Postes Vacants": "",
        "Quotit\u00e9": 100,
        "TYPE": "E",
        "SIGLE": "E.P.PU",
        "NOM": "LA SENSEE NIVEAU 1 (RPI 22)",
        "ADRESSE": "13 RUE DU GENERAL DE GAULLE",
        "COMMUNE": "HEM LENGLET",
        "SUPPORT": "0119",
        "DISCIPLINE": "P0002",
        "CIRCONSCRIPTION": "CAMBRAI-CENTRE",
        "lat": 50.2583983,
        "lng": 3.2315731,
        "geo": {
            "lat": 50.2583983,
            "lng": 3.2315731
        }
    },
    {
        "N\u00b0POSTE": 54,
        "Nb Postes Vacants": "",
        "Quotit\u00e9": 100,
        "TYPE": "E",
        "SIGLE": "E.P.PU",
        "NOM": "(RPI 4)",
        "ADRESSE": "CONTOUR DE L EGLISE",
        "COMMUNE": "HOUTKERQUE",
        "SUPPORT": "0119",
        "DISCIPLINE": "P0002",
        "CIRCONSCRIPTION": "DUNKERQUE-HAZEBROUCK",
        "lat": 50.8766185,
        "lng": 2.5979002,
        "geo": {
            "lat": 50.8766185,
            "lng": 2.5979002
        }
    },
    {
        "N\u00b0POSTE": 55,
        "Nb Postes Vacants": "",
        "Quotit\u00e9": 100,
        "TYPE": "E",
        "SIGLE": "E.E.PU",
        "NOM": "(RPI 24)",
        "ADRESSE": "79 ROUTE NATIONALE",
        "COMMUNE": "INCHY",
        "SUPPORT": "0119",
        "DISCIPLINE": "P0002",
        "CIRCONSCRIPTION": "CAMBRAI-SUD",
        "lat": 50.1216016,
        "lng": 3.4649564,
        "geo": {
            "lat": 50.1216016,
            "lng": 3.4649564
        }
    },
    {
        "N\u00b0POSTE": 56,
        "Nb Postes Vacants": "",
        "Quotit\u00e9": 100,
        "TYPE": "E",
        "SIGLE": "E.P.PU",
        "NOM": "JEAN-LOUIS DUFOUR",
        "ADRESSE": "4 RUE DE L'EGLISE",
        "COMMUNE": "LESDAIN",
        "SUPPORT": "0119",
        "DISCIPLINE": "P0002",
        "CIRCONSCRIPTION": "CAMBRAI-SUD",
        "lat": 50.0983708,
        "lng": 3.2703451,
        "geo": {
            "lat": 50.0983708,
            "lng": 3.2703451
        }
    },
    {
        "N\u00b0POSTE": 57,
        "Nb Postes Vacants": "",
        "Quotit\u00e9": 100,
        "TYPE": "E",
        "SIGLE": "E.P.PU",
        "NOM": "",
        "ADRESSE": "LA PLACE",
        "COMMUNE": "LIMONT FONTAINE",
        "SUPPORT": "0119",
        "DISCIPLINE": "P0002",
        "CIRCONSCRIPTION": "AVESNES AULNOYE",
        "lat": 50.205621,
        "lng": 3.920805999999999,
        "geo": {
            "lat": 50.205621,
            "lng": 3.920805999999999
        }
    },
    {
        "N\u00b0POSTE": 58,
        "Nb Postes Vacants": "",
        "Quotit\u00e9": 100,
        "TYPE": "E",
        "SIGLE": "E.P.PU",
        "NOM": "(RPI 8)",
        "ADRESSE": "10 RUE HAUTE",
        "COMMUNE": "MAIRIEUX",
        "SUPPORT": "0119",
        "DISCIPLINE": "P0002",
        "CIRCONSCRIPTION": "AVESNES-MAUBEUGE",
        "lat": 50.3128058,
        "lng": 3.9922105,
        "geo": {
            "lat": 50.3128058,
            "lng": 3.9922105
        }
    },
    {
        "N\u00b0POSTE": 59,
        "Nb Postes Vacants": "",
        "Quotit\u00e9": 100,
        "TYPE": "E",
        "SIGLE": "E.P.PU",
        "NOM": "",
        "ADRESSE": "3 RUE D'HONNECHY",
        "COMMUNE": "MAUROIS",
        "SUPPORT": "0119",
        "DISCIPLINE": "P0002",
        "CIRCONSCRIPTION": "CAMBRAI-SUD",
        "lat": 50.0737366,
        "lng": 3.4675051,
        "geo": {
            "lat": 50.0737366,
            "lng": 3.4675051
        }
    },
    {
        "N\u00b0POSTE": 60,
        "Nb Postes Vacants": "",
        "Quotit\u00e9": 100,
        "TYPE": "E",
        "SIGLE": "E.P.PU",
        "NOM": "DU BOURG",
        "ADRESSE": "205 ROUTE DE CASSEL",
        "COMMUNE": "MERCKEGHEM",
        "SUPPORT": "0119",
        "DISCIPLINE": "P0002",
        "CIRCONSCRIPTION": "DUNKERQUE-WORMHOUT",
        "lat": 50.860478,
        "lng": 2.2975272,
        "geo": {
            "lat": 50.860478,
            "lng": 2.2975272
        }
    },
    {
        "N\u00b0POSTE": 61,
        "Nb Postes Vacants": "",
        "Quotit\u00e9": 100,
        "TYPE": "E",
        "SIGLE": "E.P.PU",
        "NOM": "LA LICORNE",
        "ADRESSE": "84 RUE DE VERDUN",
        "COMMUNE": "MONCEAU ST WAAST",
        "SUPPORT": "0119",
        "DISCIPLINE": "P0002",
        "CIRCONSCRIPTION": "AVESNES AULNOYE",
        "lat": 50.1700653,
        "lng": 3.8574294,
        "geo": {
            "lat": 50.1700653,
            "lng": 3.8574294
        }
    },
    {
        "N\u00b0POSTE": 62,
        "Nb Postes Vacants": "",
        "Quotit\u00e9": 100,
        "TYPE": "E",
        "SIGLE": "E.P.PU",
        "NOM": "PASTEUR",
        "ADRESSE": "RUE DES ACACIAS",
        "COMMUNE": "NEUVILLE SUR ESCAUT",
        "SUPPORT": "0119",
        "DISCIPLINE": "P0002",
        "CIRCONSCRIPTION": "VALENCIENNES DENAIN",
        "lat": 50.2807017,
        "lng": 3.3396014,
        "geo": {
            "lat": 50.2807017,
            "lng": 3.3396014
        }
    },
    {
        "N\u00b0POSTE": 63,
        "Nb Postes Vacants": "",
        "Quotit\u00e9": 100,
        "TYPE": "E",
        "SIGLE": "E.P.PU",
        "NOM": "DU CENTRE",
        "ADRESSE": "RUE DU CENTRE",
        "COMMUNE": "MECQUIGNIES",
        "SUPPORT": "0119",
        "DISCIPLINE": "P0002",
        "CIRCONSCRIPTION": "AVESNES-LE QUESNOY",
        "lat": 50.2738173,
        "lng": 3.8019296,
        "geo": {
            "lat": 50.2738173,
            "lng": 3.8019296
        }
    },
    {
        "N\u00b0POSTE": 64,
        "Nb Postes Vacants": "",
        "Quotit\u00e9": 100,
        "TYPE": "E",
        "SIGLE": "E.P.PU",
        "NOM": "",
        "ADRESSE": "3 BIS RUE DE CAMBRAI",
        "COMMUNE": "RAMILLIES",
        "SUPPORT": "0119",
        "DISCIPLINE": "P0002",
        "CIRCONSCRIPTION": "CAMBRAI-CENTRE",
        "lat": 50.20553899999999,
        "lng": 3.2608108,
        "geo": {
            "lat": 50.20553899999999,
            "lng": 3.2608108
        }
    },
    {
        "N\u00b0POSTE": 65,
        "Nb Postes Vacants": "",
        "Quotit\u00e9": 100,
        "TYPE": "E",
        "SIGLE": "E.E.PU",
        "NOM": "JEAN VILAR",
        "ADRESSE": "RUE GEORGES BRASSENS",
        "COMMUNE": "RECQUIGNIES",
        "SUPPORT": "0119",
        "DISCIPLINE": "P0002",
        "CIRCONSCRIPTION": "AVESNES-JEUMONT",
        "lat": 50.2820532,
        "lng": 4.0575288,
        "geo": {
            "lat": 50.2820532,
            "lng": 4.0575288
        }
    },
    {
        "N\u00b0POSTE": 66,
        "Nb Postes Vacants": "",
        "Quotit\u00e9": 100,
        "TYPE": "E",
        "SIGLE": "E.P.PU",
        "NOM": "",
        "ADRESSE": "6 RUE DE CLAIRMARAIS",
        "COMMUNE": "RENESCURE",
        "SUPPORT": "0119",
        "DISCIPLINE": "P0002",
        "CIRCONSCRIPTION": "DUNKERQUE-HAZEBROUCK",
        "lat": 50.7502605,
        "lng": 2.3988625,
        "geo": {
            "lat": 50.7502605,
            "lng": 2.3988625
        }
    },
    {
        "N\u00b0POSTE": 67,
        "Nb Postes Vacants": "",
        "Quotit\u00e9": 100,
        "TYPE": "E",
        "SIGLE": "E.P.PU",
        "NOM": "",
        "ADRESSE": "9 RUE DE BOHERIES",
        "COMMUNE": "REUMONT",
        "SUPPORT": "0119",
        "DISCIPLINE": "P0002",
        "CIRCONSCRIPTION": "CAMBRAI-LE CATEAU",
        "lat": 50.0824639,
        "lng": 3.4847199,
        "geo": {
            "lat": 50.0824639,
            "lng": 3.4847199
        }
    },
    {
        "N\u00b0POSTE": 68,
        "Nb Postes Vacants": "",
        "Quotit\u00e9": 100,
        "TYPE": "E",
        "SIGLE": "E.E.PU",
        "NOM": "(RPI 6)",
        "ADRESSE": "RUE MICHEL SAUVAGE",
        "COMMUNE": "RIBECOURT LA TOUR",
        "SUPPORT": "0119",
        "DISCIPLINE": "P0002",
        "CIRCONSCRIPTION": "CAMBRAI-SUD",
        "lat": 50.1107465,
        "lng": 3.123949,
        "geo": {
            "lat": 50.1107465,
            "lng": 3.123949
        }
    },
    {
        "N\u00b0POSTE": 69,
        "Nb Postes Vacants": "",
        "Quotit\u00e9": 100,
        "TYPE": "E",
        "SIGLE": "E.P.PU",
        "NOM": "CHARLES FERNAND",
        "ADRESSE": "16 RUE DE L EGLISE",
        "COMMUNE": "ST AYBERT",
        "SUPPORT": "0119",
        "DISCIPLINE": "P0002",
        "CIRCONSCRIPTION": "VALENCIENNES-CONDE",
        "lat": 50.4483779,
        "lng": 3.6566461,
        "geo": {
            "lat": 50.4483779,
            "lng": 3.6566461
        }
    },
    {
        "N\u00b0POSTE": 70,
        "Nb Postes Vacants": "",
        "Quotit\u00e9": 100,
        "TYPE": "E",
        "SIGLE": "E.P.PU",
        "NOM": "",
        "ADRESSE": "RUE DU MARECHAL LECLERC",
        "COMMUNE": "ST MARTIN SUR ECAILLON",
        "SUPPORT": "0119",
        "DISCIPLINE": "P0002",
        "CIRCONSCRIPTION": "CAMBRAI-LE CATEAU",
        "lat": 50.249964,
        "lng": 3.519591,
        "geo": {
            "lat": 50.249964,
            "lng": 3.519591
        }
    },
    {
        "N\u00b0POSTE": 71,
        "Nb Postes Vacants": "",
        "Quotit\u00e9": 100,
        "TYPE": "E",
        "SIGLE": "E.P.PU",
        "NOM": "(RPI 16)",
        "ADRESSE": "2 CHEMIN DES ECOLES",
        "COMMUNE": "TAISNIERES EN THIERACHE",
        "SUPPORT": "0119",
        "DISCIPLINE": "P0002",
        "CIRCONSCRIPTION": "AVESNES AULNOYE",
        "lat": 50.14622749999999,
        "lng": 3.815972,
        "geo": {
            "lat": 50.14622749999999,
            "lng": 3.815972
        }
    },
    {
        "N\u00b0POSTE": 72,
        "Nb Postes Vacants": "",
        "Quotit\u00e9": 100,
        "TYPE": "E",
        "SIGLE": "E.P.PU",
        "NOM": "BERNARD HINAULT",
        "ADRESSE": "274 RUE EMILE D HERBOMEZ",
        "COMMUNE": "TILLOY LEZ MARCHIENNES",
        "SUPPORT": "0119",
        "DISCIPLINE": "P0002",
        "CIRCONSCRIPTION": "DOUAI-RIEULAY",
        "lat": 50.42800399999999,
        "lng": 3.3196818,
        "geo": {
            "lat": 50.42800399999999,
            "lng": 3.3196818
        }
    },
    {
        "N\u00b0POSTE": 73,
        "Nb Postes Vacants": "",
        "Quotit\u00e9": 100,
        "TYPE": "E",
        "SIGLE": "E.E.PU",
        "NOM": "",
        "ADRESSE": "65 RUE JEAN BAPTISTE LEBAS",
        "COMMUNE": "TILLOY LEZ CAMBRAI",
        "SUPPORT": "0119",
        "DISCIPLINE": "P0002",
        "CIRCONSCRIPTION": "CAMBRAI-CENTRE",
        "lat": 50.1960025,
        "lng": 3.2200993,
        "geo": {
            "lat": 50.1960025,
            "lng": 3.2200993
        }
    },
    {
        "N\u00b0POSTE": 74,
        "Nb Postes Vacants": "",
        "Quotit\u00e9": 100,
        "TYPE": "E",
        "SIGLE": "E.P.PU",
        "NOM": "CENTRE NIVEAU 1 (RPI 1)",
        "ADRESSE": "1 RUE JULES FERRY",
        "COMMUNE": "VILLERS PLOUICH",
        "SUPPORT": "0119",
        "DISCIPLINE": "P0002",
        "CIRCONSCRIPTION": "CAMBRAI-SUD",
        "lat": 50.0789356,
        "lng": 3.1329116,
        "geo": {
            "lat": 50.0789356,
            "lng": 3.1329116
        }
    },
    {
        "N\u00b0POSTE": 75,
        "Nb Postes Vacants": "",
        "Quotit\u00e9": 100,
        "TYPE": "E",
        "SIGLE": "E.P.PU",
        "NOM": "",
        "ADRESSE": "RUE NICOLAS DESPRET",
        "COMMUNE": "WALLERS-EN-FAGNE",
        "SUPPORT": "0119",
        "DISCIPLINE": "P0002",
        "CIRCONSCRIPTION": "AVESNES-FOURMIES",
        "lat": 50.063816,
        "lng": 4.17392,
        "geo": {
            "lat": 50.063816,
            "lng": 4.17392
        }
    },
    {
        "N\u00b0POSTE": 76,
        "Nb Postes Vacants": "",
        "Quotit\u00e9": 100,
        "TYPE": "E",
        "SIGLE": "E.P.PU",
        "NOM": "LA LIBAUDE",
        "ADRESSE": "49 RUE THEODORE BRASME",
        "COMMUNE": "WICRES",
        "SUPPORT": "0119",
        "DISCIPLINE": "P0002",
        "CIRCONSCRIPTION": "LILLE2-ANNOEULLIN",
        "lat": 50.5708959,
        "lng": 2.8658908,
        "geo": {
            "lat": 50.5708959,
            "lng": 2.8658908
        }
    },
    {
        "N\u00b0POSTE": 77,
        "Nb Postes Vacants": "",
        "Quotit\u00e9": 100,
        "TYPE": "E",
        "SIGLE": "E.P.PU",
        "NOM": "JACQUES BREL",
        "ADRESSE": "39 RUE DE L'EGLISE",
        "COMMUNE": "HERRIN",
        "SUPPORT": "0119",
        "DISCIPLINE": "P0002",
        "CIRCONSCRIPTION": "LILLE3-SECLIN",
        "lat": 50.5435786,
        "lng": 2.9661094,
        "geo": {
            "lat": 50.5435786,
            "lng": 2.9661094
        }
    },
    {
        "N\u00b0POSTE": 78,
        "Nb Postes Vacants": "",
        "Quotit\u00e9": 100,
        "TYPE": "E",
        "SIGLE": "E.P.PU",
        "NOM": "(RPI 12)",
        "ADRESSE": "GRANDE RUE",
        "COMMUNE": "SEPMERIES",
        "SUPPORT": "0119",
        "DISCIPLINE": "P0002",
        "CIRCONSCRIPTION": "AVESNES-LE QUESNOY",
        "lat": 50.2809544,
        "lng": 3.5633773,
        "geo": {
            "lat": 50.2809544,
            "lng": 3.5633773
        }
    },
    {
        "N\u00b0POSTE": 79,
        "Nb Postes Vacants": "",
        "Quotit\u00e9": 100,
        "TYPE": "E",
        "SIGLE": "E.P.PU",
        "NOM": "",
        "ADRESSE": "71 RUE RAYMOND VERVA",
        "COMMUNE": "ST GEORGES SUR L AA",
        "SUPPORT": "0119",
        "DISCIPLINE": "P0002",
        "CIRCONSCRIPTION": "DUNKERQUE-WORMHOUT",
        "lat": 50.97001359999999,
        "lng": 2.1646208,
        "geo": {
            "lat": 50.97001359999999,
            "lng": 2.1646208
        }
    },
    {
        "N\u00b0POSTE": 80,
        "Nb Postes Vacants": "",
        "Quotit\u00e9": 100,
        "TYPE": "E",
        "SIGLE": "E.E.PU",
        "NOM": "CLAUDE BOUQUIAUX (RPI 8)",
        "ADRESSE": "19 RUE DE L'EGLISE",
        "COMMUNE": "ELESMES",
        "SUPPORT": "0119",
        "DISCIPLINE": "P0003",
        "CIRCONSCRIPTION": "AVESNES-MAUBEUGE",
        "lat": 50.3086384,
        "lng": 4.009723800000001,
        "geo": {
            "lat": 50.3086384,
            "lng": 4.009723800000001
        }
    },
    {
        "N\u00b0POSTE": 81,
        "Nb Postes Vacants": "",
        "Quotit\u00e9": 100,
        "TYPE": "E",
        "SIGLE": "E.P.PU",
        "NOM": "",
        "ADRESSE": "22 GRAND RUE",
        "COMMUNE": "ABANCOURT",
        "SUPPORT": "0119",
        "DISCIPLINE": "P0003",
        "CIRCONSCRIPTION": "CAMBRAI-CENTRE",
        "lat": 50.235276,
        "lng": 3.212701,
        "geo": {
            "lat": 50.235276,
            "lng": 3.212701
        }
    },
    {
        "N\u00b0POSTE": 82,
        "Nb Postes Vacants": "",
        "Quotit\u00e9": 100,
        "TYPE": "E",
        "SIGLE": "E.P.PU",
        "NOM": "VICTOR HUGO",
        "ADRESSE": "1 RUE MARCEL SEMBAT",
        "COMMUNE": "RAIMBEAUCOURT",
        "SUPPORT": "0119",
        "DISCIPLINE": "P0003",
        "CIRCONSCRIPTION": "DOUAI-CUINCY",
        "lat": 50.431293,
        "lng": 3.0776275,
        "geo": {
            "lat": 50.431293,
            "lng": 3.0776275
        }
    },
    {
        "N\u00b0POSTE": 83,
        "Nb Postes Vacants": "",
        "Quotit\u00e9": 100,
        "TYPE": "E",
        "SIGLE": "E.E.PU",
        "NOM": "CHARLIE CHAPLIN",
        "ADRESSE": "DREVE DURIEZ",
        "COMMUNE": "COUDEKERQUE BRANCHE",
        "SUPPORT": "0119",
        "DISCIPLINE": "P0003",
        "CIRCONSCRIPTION": "DUNKERQUE-BERGUES",
        "lat": 51.0290106,
        "lng": 2.3933463,
        "geo": {
            "lat": 51.0290106,
            "lng": 2.3933463
        }
    },
    {
        "N\u00b0POSTE": 84,
        "Nb Postes Vacants": "",
        "Quotit\u00e9": 100,
        "TYPE": "E",
        "SIGLE": "E.E.PU",
        "NOM": "MAURICE MILLON",
        "ADRESSE": "5 RUE GABRIEL PERI",
        "COMMUNE": "COUDEKERQUE BRANCHE",
        "SUPPORT": "0119",
        "DISCIPLINE": "P0003",
        "CIRCONSCRIPTION": "DUNKERQUE-BERGUES",
        "lat": 51.01829350000001,
        "lng": 2.3718997,
        "geo": {
            "lat": 51.01829350000001,
            "lng": 2.3718997
        }
    },
    {
        "N\u00b0POSTE": 85,
        "Nb Postes Vacants": "",
        "Quotit\u00e9": 100,
        "TYPE": "E",
        "SIGLE": "E.P.PU",
        "NOM": "PIETER BRUEGHEL",
        "ADRESSE": "RUE DE LA SERPENTINE",
        "COMMUNE": "BAILLEUL",
        "SUPPORT": "0119",
        "DISCIPLINE": "P0003",
        "CIRCONSCRIPTION": "DUNKERQUE-BAILLEUL",
        "lat": 50.7226844,
        "lng": 2.7840713,
        "geo": {
            "lat": 50.7226844,
            "lng": 2.7840713
        }
    },
    {
        "N\u00b0POSTE": 86,
        "Nb Postes Vacants": 1,
        "Quotit\u00e9": 100,
        "TYPE": "E",
        "SIGLE": "E.P.PU",
        "NOM": "JEAN DE LA FONTAINE (RPI 4)",
        "ADRESSE": "57 RUE PRINCIPALE",
        "COMMUNE": "BAMBECQUE",
        "SUPPORT": "0119",
        "DISCIPLINE": "P0003",
        "CIRCONSCRIPTION": "DUNKERQUE-BERGUES",
        "lat": 50.9014642,
        "lng": 2.5465198,
        "geo": {
            "lat": 50.9014642,
            "lng": 2.5465198
        }
    },
    {
        "N\u00b0POSTE": 87,
        "Nb Postes Vacants": "",
        "Quotit\u00e9": 100,
        "TYPE": "E",
        "SIGLE": "E.P.PU",
        "NOM": "",
        "ADRESSE": "29 RUE DE MARQUETTE",
        "COMMUNE": "BANTIGNY",
        "SUPPORT": "0119",
        "DISCIPLINE": "P0003",
        "CIRCONSCRIPTION": "CAMBRAI-CENTRE",
        "lat": 50.2298957,
        "lng": 3.2306713,
        "geo": {
            "lat": 50.2298957,
            "lng": 3.2306713
        }
    },
    {
        "N\u00b0POSTE": 88,
        "Nb Postes Vacants": 1,
        "Quotit\u00e9": 100,
        "TYPE": "E",
        "SIGLE": "E.P.PU",
        "NOM": "DU TULIPIER",
        "ADRESSE": "6 RUE DE FOURNES",
        "COMMUNE": "BEAUCAMPS LIGNY",
        "SUPPORT": "0119",
        "DISCIPLINE": "P0003",
        "CIRCONSCRIPTION": "LILLE2-LOOS",
        "lat": 50.6045491,
        "lng": 2.9148539,
        "geo": {
            "lat": 50.6045491,
            "lng": 2.9148539
        }
    },
    {
        "N\u00b0POSTE": 89,
        "Nb Postes Vacants": 1,
        "Quotit\u00e9": 100,
        "TYPE": "E",
        "SIGLE": "E.P.PU",
        "NOM": "(RPI 24)",
        "ADRESSE": "1 ET 3 RUE JOSEPH DEJARDIN",
        "COMMUNE": "BEAUMONT EN CAMBRESIS",
        "SUPPORT": "0119",
        "DISCIPLINE": "P0003",
        "CIRCONSCRIPTION": "CAMBRAI-SUD",
        "lat": 50.12311099999999,
        "lng": 3.4539265,
        "geo": {
            "lat": 50.12311099999999,
            "lng": 3.4539265
        }
    },
    {
        "N\u00b0POSTE": 90,
        "Nb Postes Vacants": "",
        "Quotit\u00e9": 100,
        "TYPE": "E",
        "SIGLE": "E.P.PU",
        "NOM": "",
        "ADRESSE": "RUE DE L ARBRE",
        "COMMUNE": "BEVILLERS",
        "SUPPORT": "0119",
        "DISCIPLINE": "P0003",
        "CIRCONSCRIPTION": "CAMBRAI-SUD",
        "lat": 50.15268469999999,
        "lng": 3.3876444,
        "geo": {
            "lat": 50.15268469999999,
            "lng": 3.3876444
        }
    },
    {
        "N\u00b0POSTE": 91,
        "Nb Postes Vacants": "",
        "Quotit\u00e9": 100,
        "TYPE": "E",
        "SIGLE": "E.P.PU",
        "NOM": "RENE DELHAY",
        "ADRESSE": "ROUTE DE SEC BOIS",
        "COMMUNE": "BORRE",
        "SUPPORT": "0119",
        "DISCIPLINE": "P0003",
        "CIRCONSCRIPTION": "DUNKERQUE-HAZEBROUCK",
        "lat": 50.7255264,
        "lng": 2.5853105,
        "geo": {
            "lat": 50.7255264,
            "lng": 2.5853105
        }
    },
    {
        "N\u00b0POSTE": 92,
        "Nb Postes Vacants": "",
        "Quotit\u00e9": 100,
        "TYPE": "E",
        "SIGLE": "E.P.PU",
        "NOM": "PIERRE PERRET",
        "ADRESSE": "RUE DE L EGLISE",
        "COMMUNE": "BOUSSIERES SUR SAMBRE",
        "SUPPORT": "0119",
        "DISCIPLINE": "P0003",
        "CIRCONSCRIPTION": "AVESNES AULNOYE",
        "lat": 50.23752409999999,
        "lng": 3.8811185,
        "geo": {
            "lat": 50.23752409999999,
            "lng": 3.8811185
        }
    },
    {
        "N\u00b0POSTE": 93,
        "Nb Postes Vacants": "",
        "Quotit\u00e9": 100,
        "TYPE": "E",
        "SIGLE": "E.P.PU",
        "NOM": "LEONARD DE VINCI",
        "ADRESSE": "101 CHAUSSEE BRUNEHAUT",
        "COMMUNE": "BOUVINES",
        "SUPPORT": "0119",
        "DISCIPLINE": "P0003",
        "CIRCONSCRIPTION": "LILLE3-RONCHIN",
        "lat": 50.5792469,
        "lng": 3.1885741,
        "geo": {
            "lat": 50.5792469,
            "lng": 3.1885741
        }
    },
    {
        "N\u00b0POSTE": 94,
        "Nb Postes Vacants": "",
        "Quotit\u00e9": 100,
        "TYPE": "E",
        "SIGLE": "E.P.PU",
        "NOM": "CLAUDE BERNARD",
        "ADRESSE": "RUE FRANCK BOURREAU",
        "COMMUNE": "BUSIGNY",
        "SUPPORT": "0119",
        "DISCIPLINE": "P0003",
        "CIRCONSCRIPTION": "CAMBRAI-LE CATEAU",
        "lat": 50.0424306,
        "lng": 3.4402715,
        "geo": {
            "lat": 50.0424306,
            "lng": 3.4402715
        }
    },
    {
        "N\u00b0POSTE": 95,
        "Nb Postes Vacants": "",
        "Quotit\u00e9": 100,
        "TYPE": "E",
        "SIGLE": "E.P.PU",
        "NOM": "(RPI 18)",
        "ADRESSE": "78 GRAND RUE",
        "COMMUNE": "CANTAING SUR ESCAUT",
        "SUPPORT": "0119",
        "DISCIPLINE": "P0003",
        "CIRCONSCRIPTION": "CAMBRAI-CENTRE",
        "lat": 50.1476183,
        "lng": 3.1596267,
        "geo": {
            "lat": 50.1476183,
            "lng": 3.1596267
        }
    },
    {
        "N\u00b0POSTE": 96,
        "Nb Postes Vacants": "",
        "Quotit\u00e9": 100,
        "TYPE": "E",
        "SIGLE": "E.P.PU",
        "NOM": "DES CHATAIGNIERS",
        "ADRESSE": "36 RUE PAUL VAILLANT COUTURIER",
        "COMMUNE": "CATTENIERES",
        "SUPPORT": "0119",
        "DISCIPLINE": "P0003",
        "CIRCONSCRIPTION": "CAMBRAI-CENTRE",
        "lat": 50.1319846,
        "lng": 3.3348463,
        "geo": {
            "lat": 50.1319846,
            "lng": 3.3348463
        }
    },
    {
        "N\u00b0POSTE": 97,
        "Nb Postes Vacants": "",
        "Quotit\u00e9": 100,
        "TYPE": "E",
        "SIGLE": "E.P.PU",
        "NOM": "JEAN MACE",
        "ADRESSE": "1 R JEAN MACE",
        "COMMUNE": "CAULLERY",
        "SUPPORT": "0119",
        "DISCIPLINE": "P0003",
        "CIRCONSCRIPTION": "CAMBRAI-SUD",
        "lat": 50.0850669,
        "lng": 3.3723601,
        "geo": {
            "lat": 50.0850669,
            "lng": 3.3723601
        }
    },
    {
        "N\u00b0POSTE": 98,
        "Nb Postes Vacants": "",
        "Quotit\u00e9": 100,
        "TYPE": "E",
        "SIGLE": "E.P.PU",
        "NOM": "",
        "ADRESSE": "4 RUE THEOPHILE RISBOURG",
        "COMMUNE": "CAUROIR",
        "SUPPORT": "0119",
        "DISCIPLINE": "P0003",
        "CIRCONSCRIPTION": "CAMBRAI-CENTRE",
        "lat": 50.175993,
        "lng": 3.2992126,
        "geo": {
            "lat": 50.175993,
            "lng": 3.2992126
        }
    },
    {
        "N\u00b0POSTE": 99,
        "Nb Postes Vacants": "",
        "Quotit\u00e9": 100,
        "TYPE": "E",
        "SIGLE": "E.P.PU",
        "NOM": "LES COLIBRIS",
        "ADRESSE": "6 RUE DE LA MAIRIE",
        "COMMUNE": "CHEMY",
        "SUPPORT": "0119",
        "DISCIPLINE": "P0003",
        "CIRCONSCRIPTION": "LILLE3-SECLIN",
        "lat": 50.5323387,
        "lng": 2.9969312,
        "geo": {
            "lat": 50.5323387,
            "lng": 2.9969312
        }
    },
    {
        "N\u00b0POSTE": 100,
        "Nb Postes Vacants": "",
        "Quotit\u00e9": 100,
        "TYPE": "E",
        "SIGLE": "E.P.PU",
        "NOM": "",
        "ADRESSE": "1 RUE D'ESPINOY",
        "COMMUNE": "CLAIRFAYTS",
        "SUPPORT": "0119",
        "DISCIPLINE": "P0003",
        "CIRCONSCRIPTION": "AVESNES-JEUMONT",
        "lat": 50.1636122,
        "lng": 4.1138883,
        "geo": {
            "lat": 50.1636122,
            "lng": 4.1138883
        }
    },
    {
        "N\u00b0POSTE": 101,
        "Nb Postes Vacants": "",
        "Quotit\u00e9": 100,
        "TYPE": "E",
        "SIGLE": "E.P.PU",
        "NOM": "",
        "ADRESSE": "1 PETITE RUE",
        "COMMUNE": "COBRIEUX",
        "SUPPORT": "0119",
        "DISCIPLINE": "P0003",
        "CIRCONSCRIPTION": "LILLE3-RONCHIN",
        "lat": 50.54440839999999,
        "lng": 3.2302676,
        "geo": {
            "lat": 50.54440839999999,
            "lng": 3.2302676
        }
    },
    {
        "N\u00b0POSTE": 102,
        "Nb Postes Vacants": "",
        "Quotit\u00e9": 100,
        "TYPE": "E",
        "SIGLE": "E.E.PU",
        "NOM": "NIVEAU 2",
        "ADRESSE": "3 PLACE DE L EUROPE",
        "COMMUNE": "COLLERET",
        "SUPPORT": "0119",
        "DISCIPLINE": "P0003",
        "CIRCONSCRIPTION": "AVESNES-JEUMONT",
        "lat": 50.255875,
        "lng": 4.0749831,
        "geo": {
            "lat": 50.255875,
            "lng": 4.0749831
        }
    },
    {
        "N\u00b0POSTE": 103,
        "Nb Postes Vacants": "",
        "Quotit\u00e9": 100,
        "TYPE": "E",
        "SIGLE": "E.P.PU",
        "NOM": "",
        "ADRESSE": "RUE SAINT MARTIN",
        "COMMUNE": "CREVECOEUR SUR L ESCAUT",
        "SUPPORT": "0119",
        "DISCIPLINE": "P0003",
        "CIRCONSCRIPTION": "CAMBRAI-SUD",
        "lat": 50.105898,
        "lng": 3.250061,
        "geo": {
            "lat": 50.105898,
            "lng": 3.250061
        }
    },
    {
        "N\u00b0POSTE": 104,
        "Nb Postes Vacants": "",
        "Quotit\u00e9": 100,
        "TYPE": "E",
        "SIGLE": "E.P.PU",
        "NOM": "MARCEL AYME",
        "ADRESSE": "8 MEUNINCK STRAETE",
        "COMMUNE": "CROCHTE",
        "SUPPORT": "0119",
        "DISCIPLINE": "P0003",
        "CIRCONSCRIPTION": "DUNKERQUE-BERGUES",
        "lat": 50.9338595,
        "lng": 2.3879785,
        "geo": {
            "lat": 50.9338595,
            "lng": 2.3879785
        }
    },
    {
        "N\u00b0POSTE": 105,
        "Nb Postes Vacants": "",
        "Quotit\u00e9": 100,
        "TYPE": "E",
        "SIGLE": "E.P.PU",
        "NOM": "LES DEUX CHATEAUX",
        "ADRESSE": "RUE DU CHATEAU",
        "COMMUNE": "EBBLINGHEM",
        "SUPPORT": "0119",
        "DISCIPLINE": "P0003",
        "CIRCONSCRIPTION": "DUNKERQUE-HAZEBROUCK",
        "lat": 50.7326596,
        "lng": 2.409695,
        "geo": {
            "lat": 50.7326596,
            "lng": 2.409695
        }
    },
    {
        "N\u00b0POSTE": 106,
        "Nb Postes Vacants": "",
        "Quotit\u00e9": 100,
        "TYPE": "E",
        "SIGLE": "E.P.PU",
        "NOM": "",
        "ADRESSE": "RUE DE L'EGLISE",
        "COMMUNE": "ELINCOURT",
        "SUPPORT": "0119",
        "DISCIPLINE": "P0003",
        "CIRCONSCRIPTION": "CAMBRAI-SUD",
        "lat": 50.0431146,
        "lng": 3.3706804,
        "geo": {
            "lat": 50.0431146,
            "lng": 3.3706804
        }
    },
    {
        "N\u00b0POSTE": 107,
        "Nb Postes Vacants": "",
        "Quotit\u00e9": 100,
        "TYPE": "E",
        "SIGLE": "E.P.PU",
        "NOM": "",
        "ADRESSE": "53 RUE DE WYLDER",
        "COMMUNE": "OUDEZEELE",
        "SUPPORT": "0119",
        "DISCIPLINE": "P0003",
        "CIRCONSCRIPTION": "DUNKERQUE-HAZEBROUCK",
        "lat": 50.8379944,
        "lng": 2.5099801,
        "geo": {
            "lat": 50.8379944,
            "lng": 2.5099801
        }
    },
    {
        "N\u00b0POSTE": 108,
        "Nb Postes Vacants": "",
        "Quotit\u00e9": 100,
        "TYPE": "E",
        "SIGLE": "E.P.PU",
        "NOM": "",
        "ADRESSE": "34 RUE DU VILLAGE",
        "COMMUNE": "PREUX AU BOIS",
        "SUPPORT": "0119",
        "DISCIPLINE": "P0003",
        "CIRCONSCRIPTION": "AVESNES-LE QUESNOY",
        "lat": 50.1631817,
        "lng": 3.657304,
        "geo": {
            "lat": 50.1631817,
            "lng": 3.657304
        }
    },
    {
        "N\u00b0POSTE": 109,
        "Nb Postes Vacants": "",
        "Quotit\u00e9": 100,
        "TYPE": "E",
        "SIGLE": "E.P.PU",
        "NOM": "GHISLAIN HENNIART",
        "ADRESSE": "116 RUE DE L EGLISE",
        "COMMUNE": "ERQUINGHEM LE SEC",
        "SUPPORT": "0119",
        "DISCIPLINE": "P0003",
        "CIRCONSCRIPTION": "LILLE2-LOOS",
        "lat": 50.61370780000001,
        "lng": 2.929956,
        "geo": {
            "lat": 50.61370780000001,
            "lng": 2.929956
        }
    },
    {
        "N\u00b0POSTE": 110,
        "Nb Postes Vacants": "",
        "Quotit\u00e9": 100,
        "TYPE": "E",
        "SIGLE": "E.P.PU",
        "NOM": "JEAN-MARIE FOSSE",
        "ADRESSE": "PLACE DES ANCIENS COMBATTANTS",
        "COMMUNE": "ESCARMAIN",
        "SUPPORT": "0119",
        "DISCIPLINE": "P0003",
        "CIRCONSCRIPTION": "CAMBRAI-LE CATEAU",
        "lat": 50.2288653,
        "lng": 3.5478367,
        "geo": {
            "lat": 50.2288653,
            "lng": 3.5478367
        }
    },
    {
        "N\u00b0POSTE": 111,
        "Nb Postes Vacants": "",
        "Quotit\u00e9": 100,
        "TYPE": "E",
        "SIGLE": "E.P.PU",
        "NOM": "",
        "ADRESSE": "9 RUE DE L'EGLISE",
        "COMMUNE": "ESNES",
        "SUPPORT": "0119",
        "DISCIPLINE": "P0003",
        "CIRCONSCRIPTION": "CAMBRAI-SUD",
        "lat": 50.10113760000001,
        "lng": 3.311546,
        "geo": {
            "lat": 50.10113760000001,
            "lng": 3.311546
        }
    },
    {
        "N\u00b0POSTE": 112,
        "Nb Postes Vacants": "",
        "Quotit\u00e9": 100,
        "TYPE": "E",
        "SIGLE": "E.P.PU",
        "NOM": "CASIMIR PERIER ROND POINT",
        "ADRESSE": "RUE VLADIMIR LENINE",
        "COMMUNE": "FENAIN",
        "SUPPORT": "0119",
        "DISCIPLINE": "P0003",
        "CIRCONSCRIPTION": "DOUAI-RIEULAY",
        "lat": 50.3531834,
        "lng": 3.2969349,
        "geo": {
            "lat": 50.3531834,
            "lng": 3.2969349
        }
    },
    {
        "N\u00b0POSTE": 113,
        "Nb Postes Vacants": "",
        "Quotit\u00e9": 100,
        "TYPE": "E",
        "SIGLE": "E.P.PU",
        "NOM": "",
        "ADRESSE": "PLACE DE LA MAIRIE",
        "COMMUNE": "FLOYON",
        "SUPPORT": "0119",
        "DISCIPLINE": "P0003",
        "CIRCONSCRIPTION": "AVESNES-FOURMIES",
        "lat": 50.0411021,
        "lng": 3.8852748,
        "geo": {
            "lat": 50.0411021,
            "lng": 3.8852748
        }
    },
    {
        "N\u00b0POSTE": 114,
        "Nb Postes Vacants": "",
        "Quotit\u00e9": 100,
        "TYPE": "E",
        "SIGLE": "E.P.PU",
        "NOM": "",
        "ADRESSE": "49 RUE D'AUBENCHEUL",
        "COMMUNE": "FRESSIES",
        "SUPPORT": "0119",
        "DISCIPLINE": "P0003",
        "CIRCONSCRIPTION": "CAMBRAI-CENTRE",
        "lat": 50.2543411,
        "lng": 3.1926176,
        "geo": {
            "lat": 50.2543411,
            "lng": 3.1926176
        }
    },
    {
        "N\u00b0POSTE": 115,
        "Nb Postes Vacants": "",
        "Quotit\u00e9": 100,
        "TYPE": "E",
        "SIGLE": "E.P.PU",
        "NOM": "",
        "ADRESSE": "12 RUE DE LA VICTOIRE",
        "COMMUNE": "GHISSIGNIES",
        "SUPPORT": "0119",
        "DISCIPLINE": "P0003",
        "CIRCONSCRIPTION": "AVESNES-LE QUESNOY",
        "lat": 50.2259854,
        "lng": 3.6171273,
        "geo": {
            "lat": 50.2259854,
            "lng": 3.6171273
        }
    },
    {
        "N\u00b0POSTE": 116,
        "Nb Postes Vacants": "",
        "Quotit\u00e9": 100,
        "TYPE": "E",
        "SIGLE": "E.P.PU",
        "NOM": "",
        "ADRESSE": "1 LA PLACE",
        "COMMUNE": "GRAND FAYT",
        "SUPPORT": "0119",
        "DISCIPLINE": "P0003",
        "CIRCONSCRIPTION": "AVESNES-FOURMIES",
        "lat": 50.11258,
        "lng": 3.804235,
        "geo": {
            "lat": 50.11258,
            "lng": 3.804235
        }
    },
    {
        "N\u00b0POSTE": 117,
        "Nb Postes Vacants": "",
        "Quotit\u00e9": 100,
        "TYPE": "E",
        "SIGLE": "E.P.PU",
        "NOM": "",
        "ADRESSE": "46 RUE ANDRE HALLE",
        "COMMUNE": "HAMEL",
        "SUPPORT": "0119",
        "DISCIPLINE": "P0003",
        "CIRCONSCRIPTION": "DOUAI-CANTIN",
        "lat": 50.2791023,
        "lng": 3.075726,
        "geo": {
            "lat": 50.2791023,
            "lng": 3.075726
        }
    },
    {
        "N\u00b0POSTE": 118,
        "Nb Postes Vacants": "",
        "Quotit\u00e9": 100,
        "TYPE": "E",
        "SIGLE": "E.P.PU",
        "NOM": "CELESTIN FREINET",
        "ADRESSE": "18 RUE DU BOIS",
        "COMMUNE": "HARGNIES",
        "SUPPORT": "0119",
        "DISCIPLINE": "P0003",
        "CIRCONSCRIPTION": "AVESNES-LE QUESNOY",
        "lat": 50.2565839,
        "lng": 3.8474741,
        "geo": {
            "lat": 50.2565839,
            "lng": 3.8474741
        }
    },
    {
        "N\u00b0POSTE": 119,
        "Nb Postes Vacants": "",
        "Quotit\u00e9": 100,
        "TYPE": "E",
        "SIGLE": "E.P.PU",
        "NOM": "PAUL ET MARCELLE FRANCOIS",
        "ADRESSE": "6 RUE FERNAND PELLOUTIER",
        "COMMUNE": "HASNON",
        "SUPPORT": "0119",
        "DISCIPLINE": "P0003",
        "CIRCONSCRIPTION": "VALENCIENNES-SAINT AMAND",
        "lat": 50.4127562,
        "lng": 3.4024639,
        "geo": {
            "lat": 50.4127562,
            "lng": 3.4024639
        }
    },
    {
        "N\u00b0POSTE": 120,
        "Nb Postes Vacants": "",
        "Quotit\u00e9": 100,
        "TYPE": "E",
        "SIGLE": "E.P.PU",
        "NOM": "",
        "ADRESSE": "2 GRAND PLACE",
        "COMMUNE": "HONNECHY",
        "SUPPORT": "0119",
        "DISCIPLINE": "P0003",
        "CIRCONSCRIPTION": "CAMBRAI-SUD",
        "lat": 50.069014,
        "lng": 3.471854,
        "geo": {
            "lat": 50.069014,
            "lng": 3.471854
        }
    },
    {
        "N\u00b0POSTE": 121,
        "Nb Postes Vacants": "",
        "Quotit\u00e9": 100,
        "TYPE": "E",
        "SIGLE": "E.P.PU",
        "NOM": "SUZANNE LANOY",
        "ADRESSE": "RUE D ARLES",
        "COMMUNE": "HORNAING",
        "SUPPORT": "0119",
        "DISCIPLINE": "P0003",
        "CIRCONSCRIPTION": "DOUAI-RIEULAY",
        "lat": 50.377342,
        "lng": 3.3359152,
        "geo": {
            "lat": 50.377342,
            "lng": 3.3359152
        }
    },
    {
        "N\u00b0POSTE": 122,
        "Nb Postes Vacants": "",
        "Quotit\u00e9": 100,
        "TYPE": "E",
        "SIGLE": "E.P.PU",
        "NOM": "",
        "ADRESSE": "1 BIS RUE DU MARECHAL FOCH",
        "COMMUNE": "LIESSIES",
        "SUPPORT": "0119",
        "DISCIPLINE": "P0003",
        "CIRCONSCRIPTION": "AVESNES-JEUMONT",
        "lat": 50.1180681,
        "lng": 4.0829394,
        "geo": {
            "lat": 50.1180681,
            "lng": 4.0829394
        }
    },
    {
        "N\u00b0POSTE": 123,
        "Nb Postes Vacants": "",
        "Quotit\u00e9": 100,
        "TYPE": "E",
        "SIGLE": "E.P.PU",
        "NOM": "HENRI MATISSE",
        "ADRESSE": "90 PETITE RUE",
        "COMMUNE": "LOFFRE",
        "SUPPORT": "0119",
        "DISCIPLINE": "P0003",
        "CIRCONSCRIPTION": "DOUAI-CANTIN",
        "lat": 50.3561741,
        "lng": 3.1729139,
        "geo": {
            "lat": 50.3561741,
            "lng": 3.1729139
        }
    },
    {
        "N\u00b0POSTE": 124,
        "Nb Postes Vacants": "",
        "Quotit\u00e9": 100,
        "TYPE": "E",
        "SIGLE": "E.P.PU",
        "NOM": "DU TILLEUL",
        "ADRESSE": "130 CONTOUR DE L'EGLISE",
        "COMMUNE": "LYNDE",
        "SUPPORT": "0119",
        "DISCIPLINE": "P0003",
        "CIRCONSCRIPTION": "DUNKERQUE-HAZEBROUCK",
        "lat": 50.7133139,
        "lng": 2.4182111,
        "geo": {
            "lat": 50.7133139,
            "lng": 2.4182111
        }
    },
    {
        "N\u00b0POSTE": 125,
        "Nb Postes Vacants": "",
        "Quotit\u00e9": 100,
        "TYPE": "E",
        "SIGLE": "E.P.PU",
        "NOM": "ALEXIS DELANNOY",
        "ADRESSE": "15 RUE DE L'EGLISE",
        "COMMUNE": "LE MAISNIL",
        "SUPPORT": "0119",
        "DISCIPLINE": "P0003",
        "CIRCONSCRIPTION": "LILLE2-LOOS",
        "lat": 50.61534349999999,
        "lng": 2.8844556,
        "geo": {
            "lat": 50.61534349999999,
            "lng": 2.8844556
        }
    },
    {
        "N\u00b0POSTE": 126,
        "Nb Postes Vacants": "",
        "Quotit\u00e9": 100,
        "TYPE": "E",
        "SIGLE": "E.P.PU",
        "NOM": "LOUIS BLERIOT",
        "ADRESSE": "PLACE DE LA VICTOIRE",
        "COMMUNE": "MALINCOURT",
        "SUPPORT": "0119",
        "DISCIPLINE": "P0003",
        "CIRCONSCRIPTION": "CAMBRAI-SUD",
        "lat": 50.0471845,
        "lng": 3.325599,
        "geo": {
            "lat": 50.0471845,
            "lng": 3.325599
        }
    },
    {
        "N\u00b0POSTE": 127,
        "Nb Postes Vacants": "",
        "Quotit\u00e9": 100,
        "TYPE": "E",
        "SIGLE": "E.P.PU",
        "NOM": "",
        "ADRESSE": "14 RUE DE TAISNIERES",
        "COMMUNE": "MARBAIX",
        "SUPPORT": "0119",
        "DISCIPLINE": "P0003",
        "CIRCONSCRIPTION": "AVESNES-FOURMIES",
        "lat": 50.1300233,
        "lng": 3.8406322,
        "geo": {
            "lat": 50.1300233,
            "lng": 3.8406322
        }
    },
    {
        "N\u00b0POSTE": 128,
        "Nb Postes Vacants": "",
        "Quotit\u00e9": 100,
        "TYPE": "E",
        "SIGLE": "E.P.PU",
        "NOM": "LOUIS PASTEUR",
        "ADRESSE": "42 RUE MAGINOT",
        "COMMUNE": "MARCQ EN OSTREVENT",
        "SUPPORT": "0119",
        "DISCIPLINE": "P0003",
        "CIRCONSCRIPTION": "DOUAI-CANTIN",
        "lat": 50.2856306,
        "lng": 3.2402198,
        "geo": {
            "lat": 50.2856306,
            "lng": 3.2402198
        }
    },
    {
        "N\u00b0POSTE": 129,
        "Nb Postes Vacants": "",
        "Quotit\u00e9": 100,
        "TYPE": "E",
        "SIGLE": "E.P.PU",
        "NOM": "",
        "ADRESSE": "84 GRANDE RUE",
        "COMMUNE": "MAZINGHIEN",
        "SUPPORT": "0119",
        "DISCIPLINE": "P0003",
        "CIRCONSCRIPTION": "CAMBRAI-LE CATEAU",
        "lat": 50.05068,
        "lng": 3.601327,
        "geo": {
            "lat": 50.05068,
            "lng": 3.601327
        }
    },
    {
        "N\u00b0POSTE": 130,
        "Nb Postes Vacants": "",
        "Quotit\u00e9": 100,
        "TYPE": "E",
        "SIGLE": "E.P.PU",
        "NOM": "",
        "ADRESSE": "1 RUE ROGER SALENGRO",
        "COMMUNE": "MILLONFOSSE",
        "SUPPORT": "0119",
        "DISCIPLINE": "P0003",
        "CIRCONSCRIPTION": "VALENCIENNES-SAINT AMAND",
        "lat": 50.4332913,
        "lng": 3.3852818,
        "geo": {
            "lat": 50.4332913,
            "lng": 3.3852818
        }
    },
    {
        "N\u00b0POSTE": 131,
        "Nb Postes Vacants": "",
        "Quotit\u00e9": 100,
        "TYPE": "E",
        "SIGLE": "E.P.PU",
        "NOM": "",
        "ADRESSE": "10 BIS RUE DE LA MAIRIE",
        "COMMUNE": "MONTAY",
        "SUPPORT": "0119",
        "DISCIPLINE": "P0003",
        "CIRCONSCRIPTION": "CAMBRAI-LE CATEAU",
        "lat": 50.1176018,
        "lng": 3.5412296,
        "geo": {
            "lat": 50.1176018,
            "lng": 3.5412296
        }
    },
    {
        "N\u00b0POSTE": 132,
        "Nb Postes Vacants": "",
        "Quotit\u00e9": 100,
        "TYPE": "E",
        "SIGLE": "E.P.PU",
        "NOM": "LES PETITS PRES VERTS",
        "ADRESSE": "2 RUE VOLTAIRE",
        "COMMUNE": "MONTIGNY EN CAMBRESIS",
        "SUPPORT": "0119",
        "DISCIPLINE": "P0003",
        "CIRCONSCRIPTION": "CAMBRAI-SUD",
        "lat": 50.0912279,
        "lng": 3.4091933,
        "geo": {
            "lat": 50.0912279,
            "lng": 3.4091933
        }
    },
    {
        "N\u00b0POSTE": 133,
        "Nb Postes Vacants": "",
        "Quotit\u00e9": 100,
        "TYPE": "E",
        "SIGLE": "E.P.PU",
        "NOM": "LES DEUX SAULES",
        "ADRESSE": "42 CHAUSSEE BRUNEHAUT",
        "COMMUNE": "NAVES",
        "SUPPORT": "0119",
        "DISCIPLINE": "P0003",
        "CIRCONSCRIPTION": "CAMBRAI-LE CATEAU",
        "lat": 50.201179,
        "lng": 3.3181888,
        "geo": {
            "lat": 50.201179,
            "lng": 3.3181888
        }
    },
    {
        "N\u00b0POSTE": 134,
        "Nb Postes Vacants": "",
        "Quotit\u00e9": 100,
        "TYPE": "E",
        "SIGLE": "E.P.PU",
        "NOM": "",
        "ADRESSE": "39 BIS RUE DU GAL DE GAULLE",
        "COMMUNE": "LA NEUVILLE",
        "SUPPORT": "0119",
        "DISCIPLINE": "P0003",
        "CIRCONSCRIPTION": "LILLE3-SECLIN",
        "lat": 50.4942145,
        "lng": 3.0465936,
        "geo": {
            "lat": 50.4942145,
            "lng": 3.0465936
        }
    },
    {
        "N\u00b0POSTE": 135,
        "Nb Postes Vacants": "",
        "Quotit\u00e9": 100,
        "TYPE": "E",
        "SIGLE": "E.P.PU",
        "NOM": "LOUIS ET FERNANDE LEROY",
        "ADRESSE": "1 RUE DE LA MAIRIE",
        "COMMUNE": "NIEURLET",
        "SUPPORT": "0119",
        "DISCIPLINE": "P0003",
        "CIRCONSCRIPTION": "DUNKERQUE-WORMHOUT",
        "lat": 50.7896142,
        "lng": 2.2814206,
        "geo": {
            "lat": 50.7896142,
            "lng": 2.2814206
        }
    },
    {
        "N\u00b0POSTE": 136,
        "Nb Postes Vacants": "",
        "Quotit\u00e9": 100,
        "TYPE": "E",
        "SIGLE": "E.P.PU",
        "NOM": "",
        "ADRESSE": "8 RUE DES ECOLES",
        "COMMUNE": "NOYELLES SUR ESCAUT",
        "SUPPORT": "0119",
        "DISCIPLINE": "P0003",
        "CIRCONSCRIPTION": "CAMBRAI-SUD",
        "lat": 50.1382474,
        "lng": 3.1812428,
        "geo": {
            "lat": 50.1382474,
            "lng": 3.1812428
        }
    },
    {
        "N\u00b0POSTE": 137,
        "Nb Postes Vacants": 1,
        "Quotit\u00e9": 100,
        "TYPE": "E",
        "SIGLE": "E.P.PU",
        "NOM": "CHARLES PERRAULT",
        "ADRESSE": "23 RUE DE DENAIN",
        "COMMUNE": "OISY",
        "SUPPORT": "0119",
        "DISCIPLINE": "P0003",
        "CIRCONSCRIPTION": "VALENCIENNES ANZIN",
        "lat": 50.3560005,
        "lng": 3.4390476,
        "geo": {
            "lat": 50.3560005,
            "lng": 3.4390476
        }
    },
    {
        "N\u00b0POSTE": 138,
        "Nb Postes Vacants": "",
        "Quotit\u00e9": 100,
        "TYPE": "E",
        "SIGLE": "E.P.PU",
        "NOM": "JULES FERRY",
        "ADRESSE": "12 RUE DE L EGLISE",
        "COMMUNE": "RAILLENCOURT STE OLLE",
        "SUPPORT": "0119",
        "DISCIPLINE": "P0003",
        "CIRCONSCRIPTION": "CAMBRAI-CENTRE",
        "lat": 50.1909025,
        "lng": 3.1686558,
        "geo": {
            "lat": 50.1909025,
            "lng": 3.1686558
        }
    },
    {
        "N\u00b0POSTE": 139,
        "Nb Postes Vacants": "",
        "Quotit\u00e9": 100,
        "TYPE": "E",
        "SIGLE": "E.P.PU",
        "NOM": "",
        "ADRESSE": "3 GRAND'RUE",
        "COMMUNE": "REJET DE BEAULIEU",
        "SUPPORT": "0119",
        "DISCIPLINE": "P0003",
        "CIRCONSCRIPTION": "CAMBRAI-LE CATEAU",
        "lat": 50.0428383,
        "lng": 3.6291654,
        "geo": {
            "lat": 50.0428383,
            "lng": 3.6291654
        }
    },
    {
        "N\u00b0POSTE": 140,
        "Nb Postes Vacants": 1,
        "Quotit\u00e9": 100,
        "TYPE": "E",
        "SIGLE": "E.E.PU",
        "NOM": "JACQUES BREL (RPI 4)",
        "ADRESSE": "30 RUE DE L EUROPE",
        "COMMUNE": "OOST CAPPEL",
        "SUPPORT": "0119",
        "DISCIPLINE": "P0003",
        "CIRCONSCRIPTION": "DUNKERQUE-BERGUES",
        "lat": 50.9250653,
        "lng": 2.5971604,
        "geo": {
            "lat": 50.9250653,
            "lng": 2.5971604
        }
    },
    {
        "N\u00b0POSTE": 141,
        "Nb Postes Vacants": "",
        "Quotit\u00e9": 100,
        "TYPE": "E",
        "SIGLE": "E.P.PU",
        "NOM": "",
        "ADRESSE": "PLACE EMILE POULAIN",
        "COMMUNE": "ROUCOURT",
        "SUPPORT": "0119",
        "DISCIPLINE": "P0003",
        "CIRCONSCRIPTION": "DOUAI-CANTIN",
        "lat": 50.3279349,
        "lng": 3.1487705,
        "geo": {
            "lat": 50.3279349,
            "lng": 3.1487705
        }
    },
    {
        "N\u00b0POSTE": 142,
        "Nb Postes Vacants": "",
        "Quotit\u00e9": 100,
        "TYPE": "E",
        "SIGLE": "E.P.PU",
        "NOM": "",
        "ADRESSE": "139 RUE ALEXANDRE DUBOIS",
        "COMMUNE": "RUMEGIES",
        "SUPPORT": "0119",
        "DISCIPLINE": "P0003",
        "CIRCONSCRIPTION": "VALENCIENNES-SAINT AMAND",
        "lat": 50.489841,
        "lng": 3.3503568,
        "geo": {
            "lat": 50.489841,
            "lng": 3.3503568
        }
    },
    {
        "N\u00b0POSTE": 143,
        "Nb Postes Vacants": "",
        "Quotit\u00e9": 100,
        "TYPE": "E",
        "SIGLE": "E.P.PU",
        "NOM": "",
        "ADRESSE": "RUE DES BOUCHERS",
        "COMMUNE": "ST HILAIRE SUR HELPE",
        "SUPPORT": "0119",
        "DISCIPLINE": "P0003",
        "CIRCONSCRIPTION": "AVESNES-FOURMIES",
        "lat": 50.131676,
        "lng": 3.903435,
        "geo": {
            "lat": 50.131676,
            "lng": 3.903435
        }
    },
    {
        "N\u00b0POSTE": 144,
        "Nb Postes Vacants": "",
        "Quotit\u00e9": 100,
        "TYPE": "E",
        "SIGLE": "E.P.PU",
        "NOM": "JULES SAGARY",
        "ADRESSE": "92 RUE DE BERTHEN",
        "COMMUNE": "ST JANS CAPPEL",
        "SUPPORT": "0119",
        "DISCIPLINE": "P0003",
        "CIRCONSCRIPTION": "DUNKERQUE-BAILLEUL",
        "lat": 50.7643353,
        "lng": 2.7203551,
        "geo": {
            "lat": 50.7643353,
            "lng": 2.7203551
        }
    },
    {
        "N\u00b0POSTE": 145,
        "Nb Postes Vacants": "",
        "Quotit\u00e9": 100,
        "TYPE": "E",
        "SIGLE": "E.P.PU",
        "NOM": "",
        "ADRESSE": "5 RUE DE LA MAIRIE",
        "COMMUNE": "ST MOMELIN",
        "SUPPORT": "0119",
        "DISCIPLINE": "P0003",
        "CIRCONSCRIPTION": "DUNKERQUE-WORMHOUT",
        "lat": 50.7935743,
        "lng": 2.2500347,
        "geo": {
            "lat": 50.79038389999999,
            "lng": 2.2817714
        }
    },
    {
        "N\u00b0POSTE": 146,
        "Nb Postes Vacants": 1,
        "Quotit\u00e9": 100,
        "TYPE": "E",
        "SIGLE": "E.E.PU",
        "NOM": "",
        "ADRESSE": "29 ROUTE DE SAINT AUBIN",
        "COMMUNE": "ST REMY CHAUSSEE",
        "SUPPORT": "0119",
        "DISCIPLINE": "P0003",
        "CIRCONSCRIPTION": "AVESNES AULNOYE",
        "lat": 50.1724802,
        "lng": 3.874196,
        "geo": {
            "lat": 50.1724802,
            "lng": 3.874196
        }
    },
    {
        "N\u00b0POSTE": 147,
        "Nb Postes Vacants": "",
        "Quotit\u00e9": 100,
        "TYPE": "E",
        "SIGLE": "E.P.PU",
        "NOM": "LOUISE THULIEZ (RPI 25)",
        "ADRESSE": "ROUTE NATIONALE",
        "COMMUNE": "SAINT WAAST LA VALLEE",
        "SUPPORT": "0119",
        "DISCIPLINE": "P0003",
        "CIRCONSCRIPTION": "AVESNES-LE QUESNOY",
        "lat": 50.302009,
        "lng": 3.776887,
        "geo": {
            "lat": 50.302009,
            "lng": 3.776887
        }
    },
    {
        "N\u00b0POSTE": 148,
        "Nb Postes Vacants": "",
        "Quotit\u00e9": 100,
        "TYPE": "E",
        "SIGLE": "E.P.PU",
        "NOM": "",
        "ADRESSE": "51 RUE LEON COURTOIS",
        "COMMUNE": "SERCUS",
        "SUPPORT": "0119",
        "DISCIPLINE": "P0003",
        "CIRCONSCRIPTION": "DUNKERQUE-HAZEBROUCK",
        "lat": 50.70646139999999,
        "lng": 2.4565774,
        "geo": {
            "lat": 50.70646139999999,
            "lng": 2.4565774
        }
    },
    {
        "N\u00b0POSTE": 149,
        "Nb Postes Vacants": "",
        "Quotit\u00e9": 100,
        "TYPE": "E",
        "SIGLE": "E.P.PU",
        "NOM": "",
        "ADRESSE": "2 PLACE JEAN RUYSSEN",
        "COMMUNE": "STEENBECQUE",
        "SUPPORT": "0119",
        "DISCIPLINE": "P0003",
        "CIRCONSCRIPTION": "DUNKERQUE-HAZEBROUCK",
        "lat": 50.6736556,
        "lng": 2.4850175,
        "geo": {
            "lat": 50.6736556,
            "lng": 2.4850175
        }
    },
    {
        "N\u00b0POSTE": 150,
        "Nb Postes Vacants": "",
        "Quotit\u00e9": 100,
        "TYPE": "E",
        "SIGLE": "E.P.PU",
        "NOM": "PIERRE DEWAELE",
        "ADRESSE": "IMPASSE DE L'ECOLE",
        "COMMUNE": "STEENE",
        "SUPPORT": "0119",
        "DISCIPLINE": "P0003",
        "CIRCONSCRIPTION": "DUNKERQUE-BERGUES",
        "lat": 50.9515033,
        "lng": 2.3690668,
        "geo": {
            "lat": 50.9515033,
            "lng": 2.3690668
        }
    },
    {
        "N\u00b0POSTE": 151,
        "Nb Postes Vacants": "",
        "Quotit\u00e9": 100,
        "TYPE": "E",
        "SIGLE": "E.P.PU",
        "NOM": "DU TILLEUL",
        "ADRESSE": "2 RUE DE L'EPINETTE",
        "COMMUNE": "STEENWERCK",
        "SUPPORT": "0119",
        "DISCIPLINE": "P0003",
        "CIRCONSCRIPTION": "DUNKERQUE-BAILLEUL",
        "lat": 50.6757125,
        "lng": 2.7910296,
        "geo": {
            "lat": 50.6757125,
            "lng": 2.7910296
        }
    },
    {
        "N\u00b0POSTE": 152,
        "Nb Postes Vacants": "",
        "Quotit\u00e9": 100,
        "TYPE": "E",
        "SIGLE": "E.P.PU",
        "NOM": "ANNE FRANK",
        "ADRESSE": "358 PLACE SAINT MARTIN",
        "COMMUNE": "TERDEGHEM",
        "SUPPORT": "0119",
        "DISCIPLINE": "P0003",
        "CIRCONSCRIPTION": "DUNKERQUE-HAZEBROUCK",
        "lat": 50.798449,
        "lng": 2.5401977,
        "geo": {
            "lat": 50.798449,
            "lng": 2.5401977
        }
    },
    {
        "N\u00b0POSTE": 153,
        "Nb Postes Vacants": "",
        "Quotit\u00e9": 100,
        "TYPE": "E",
        "SIGLE": "E.P.PU",
        "NOM": "ANDRE WILLIART",
        "ADRESSE": "3 RUE DE LA GARE",
        "COMMUNE": "THIENNES",
        "SUPPORT": "0119",
        "DISCIPLINE": "P0003",
        "CIRCONSCRIPTION": "DUNKERQUE-HAZEBROUCK",
        "lat": 50.6513854,
        "lng": 2.4664553,
        "geo": {
            "lat": 50.6513854,
            "lng": 2.4664553
        }
    },
    {
        "N\u00b0POSTE": 154,
        "Nb Postes Vacants": 1,
        "Quotit\u00e9": 100,
        "TYPE": "E",
        "SIGLE": "E.P.PU",
        "NOM": "LA CLAIRE FONTAINE",
        "ADRESSE": "16 RUE DES CUTIVIERS",
        "COMMUNE": "THUN ST MARTIN",
        "SUPPORT": "0119",
        "DISCIPLINE": "P0003",
        "CIRCONSCRIPTION": "CAMBRAI-LE CATEAU",
        "lat": 50.226957,
        "lng": 3.2965778,
        "geo": {
            "lat": 50.226957,
            "lng": 3.2965778
        }
    },
    {
        "N\u00b0POSTE": 155,
        "Nb Postes Vacants": "",
        "Quotit\u00e9": 100,
        "TYPE": "E",
        "SIGLE": "E.E.PU",
        "NOM": "GEORGES HUISMAN NIVEAU 2",
        "ADRESSE": "13 AVENUE DU SERGENT CAIRNS",
        "COMMUNE": "VALENCIENNES",
        "SUPPORT": "0119",
        "DISCIPLINE": "P0003",
        "CIRCONSCRIPTION": "VALENCIENNES-CENTRE",
        "lat": 50.351253,
        "lng": 3.5242857,
        "geo": {
            "lat": 50.351253,
            "lng": 3.5242857
        }
    },
    {
        "N\u00b0POSTE": 156,
        "Nb Postes Vacants": "",
        "Quotit\u00e9": 100,
        "TYPE": "E",
        "SIGLE": "E.P.PU",
        "NOM": "",
        "ADRESSE": "198 RUE DU CALVAIRE",
        "COMMUNE": "VERTAIN",
        "SUPPORT": "0119",
        "DISCIPLINE": "P0003",
        "CIRCONSCRIPTION": "CAMBRAI-LE CATEAU",
        "lat": 50.2143332,
        "lng": 3.5262885,
        "geo": {
            "lat": 50.2143332,
            "lng": 3.5262885
        }
    },
    {
        "N\u00b0POSTE": 157,
        "Nb Postes Vacants": "",
        "Quotit\u00e9": 100,
        "TYPE": "E",
        "SIGLE": "E.P.PU",
        "NOM": "DU DROOGHOUT",
        "ADRESSE": "10 R VIEUX BERQUIN HM SEC BOIS",
        "COMMUNE": "VIEUX BERQUIN",
        "SUPPORT": "0119",
        "DISCIPLINE": "P0003",
        "CIRCONSCRIPTION": "DUNKERQUE-BAILLEUL",
        "lat": 50.7076304,
        "lng": 2.5993587,
        "geo": {
            "lat": 50.7076304,
            "lng": 2.5993587
        }
    },
    {
        "N\u00b0POSTE": 158,
        "Nb Postes Vacants": "",
        "Quotit\u00e9": 100,
        "TYPE": "E",
        "SIGLE": "E.P.PU",
        "NOM": "PIERRE DEVIGNE",
        "ADRESSE": "RUE DE MAUBEUGE",
        "COMMUNE": "VIEUX MESNIL",
        "SUPPORT": "0119",
        "DISCIPLINE": "P0003",
        "CIRCONSCRIPTION": "AVESNES AULNOYE",
        "lat": 50.2575539,
        "lng": 3.8757222,
        "geo": {
            "lat": 50.2575539,
            "lng": 3.8757222
        }
    },
    {
        "N\u00b0POSTE": 159,
        "Nb Postes Vacants": "",
        "Quotit\u00e9": 100,
        "TYPE": "E",
        "SIGLE": "E.P.PU",
        "NOM": "",
        "ADRESSE": "PLACE DU MONT TILLEUL",
        "COMMUNE": "VILLERS AU TERTRE",
        "SUPPORT": "0119",
        "DISCIPLINE": "P0003",
        "CIRCONSCRIPTION": "DOUAI-CANTIN",
        "lat": 50.3023123,
        "lng": 3.1800664,
        "geo": {
            "lat": 50.3023123,
            "lng": 3.1800664
        }
    },
    {
        "N\u00b0POSTE": 160,
        "Nb Postes Vacants": "",
        "Quotit\u00e9": 100,
        "TYPE": "E",
        "SIGLE": "E.P.PU",
        "NOM": "",
        "ADRESSE": "PLACE DU 8 MAI 1945",
        "COMMUNE": "VILLERS GUISLAIN",
        "SUPPORT": "0119",
        "DISCIPLINE": "P0003",
        "CIRCONSCRIPTION": "CAMBRAI-SUD",
        "lat": 50.0401155,
        "lng": 3.1550514,
        "geo": {
            "lat": 50.0401155,
            "lng": 3.1550514
        }
    },
    {
        "N\u00b0POSTE": 161,
        "Nb Postes Vacants": "",
        "Quotit\u00e9": 100,
        "TYPE": "E",
        "SIGLE": "E.P.PU",
        "NOM": "LA FONTAINE",
        "ADRESSE": "2 RUE DU DOCTEUR CALMETTE",
        "COMMUNE": "WASNES AU BAC",
        "SUPPORT": "0119",
        "DISCIPLINE": "P0003",
        "CIRCONSCRIPTION": "VALENCIENNES-ESCAUDAIN",
        "lat": 50.2697179,
        "lng": 3.2581281,
        "geo": {
            "lat": 50.2697179,
            "lng": 3.2581281
        }
    },
    {
        "N\u00b0POSTE": 162,
        "Nb Postes Vacants": 1,
        "Quotit\u00e9": 100,
        "TYPE": "E",
        "SIGLE": "E.P.PU",
        "NOM": "MAXENCE VAN DER MEERSCH",
        "ADRESSE": "756 RUE GRANDE",
        "COMMUNE": "WARLAING",
        "SUPPORT": "0119",
        "DISCIPLINE": "P0003",
        "CIRCONSCRIPTION": "DOUAI-RIEULAY",
        "lat": 50.4112584,
        "lng": 3.3216817,
        "geo": {
            "lat": 50.4112584,
            "lng": 3.3216817
        }
    },
    {
        "N\u00b0POSTE": 163,
        "Nb Postes Vacants": "",
        "Quotit\u00e9": 100,
        "TYPE": "E",
        "SIGLE": "E.P.PU",
        "NOM": "",
        "ADRESSE": "210 LA PLACE",
        "COMMUNE": "ZUYTPEENE",
        "SUPPORT": "0119",
        "DISCIPLINE": "P0003",
        "CIRCONSCRIPTION": "DUNKERQUE-WORMHOUT",
        "lat": 50.8060183,
        "lng": 2.3971234,
        "geo": {
            "lat": 50.8060183,
            "lng": 2.3971234
        }
    },
    {
        "N\u00b0POSTE": 164,
        "Nb Postes Vacants": "",
        "Quotit\u00e9": 100,
        "TYPE": "E",
        "SIGLE": "E.P.PU",
        "NOM": "",
        "ADRESSE": "5 RUE LUCIEN GILLARD",
        "COMMUNE": "GOGNIES CHAUSSEE",
        "SUPPORT": "0119",
        "DISCIPLINE": "P0003",
        "CIRCONSCRIPTION": "AVESNES-LE QUESNOY",
        "lat": 50.3405082,
        "lng": 3.9435148,
        "geo": {
            "lat": 50.3405082,
            "lng": 3.9435148
        }
    },
    {
        "N\u00b0POSTE": 165,
        "Nb Postes Vacants": "",
        "Quotit\u00e9": 100,
        "TYPE": "E",
        "SIGLE": "E.P.PU",
        "NOM": "VILLARD DE HONNECOURT",
        "ADRESSE": "3 RUE DE L'EGLISE",
        "COMMUNE": "HONNECOURT SUR ESCAUT",
        "SUPPORT": "0119",
        "DISCIPLINE": "P0003",
        "CIRCONSCRIPTION": "CAMBRAI-SUD",
        "lat": 50.0378397,
        "lng": 3.1989869,
        "geo": {
            "lat": 50.0378397,
            "lng": 3.1989869
        }
    },
    {
        "N\u00b0POSTE": 166,
        "Nb Postes Vacants": "",
        "Quotit\u00e9": 100,
        "TYPE": "E",
        "SIGLE": "E.P.PU",
        "NOM": "",
        "ADRESSE": "60BIS ROUTE NATIONALE",
        "COMMUNE": "BEUGNIES",
        "SUPPORT": "0119",
        "DISCIPLINE": "P0003",
        "CIRCONSCRIPTION": "AVESNES-JEUMONT",
        "lat": 50.16149100000001,
        "lng": 4.01445,
        "geo": {
            "lat": 50.16149100000001,
            "lng": 4.01445
        }
    },
    {
        "N\u00b0POSTE": 167,
        "Nb Postes Vacants": "",
        "Quotit\u00e9": 100,
        "TYPE": "E",
        "SIGLE": "E.P.PU",
        "NOM": "",
        "ADRESSE": "13BIS RUE DE LANDRECIES",
        "COMMUNE": "FONTAINE AU BOIS",
        "SUPPORT": "0119",
        "DISCIPLINE": "P0003",
        "CIRCONSCRIPTION": "AVESNES AULNOYE",
        "lat": 50.1419769,
        "lng": 3.6474799,
        "geo": {
            "lat": 50.1419769,
            "lng": 3.6474799
        }
    },
    {
        "N\u00b0POSTE": 168,
        "Nb Postes Vacants": "",
        "Quotit\u00e9": 100,
        "TYPE": "E",
        "SIGLE": "E.P.PU",
        "NOM": "",
        "ADRESSE": "24 RUE LAURENT NIOGRET",
        "COMMUNE": "HON HERGIES",
        "SUPPORT": "0119",
        "DISCIPLINE": "P0003",
        "CIRCONSCRIPTION": "AVESNES-LE QUESNOY",
        "lat": 50.3267093,
        "lng": 3.8185739,
        "geo": {
            "lat": 50.3267093,
            "lng": 3.8185739
        }
    },
    {
        "N\u00b0POSTE": 169,
        "Nb Postes Vacants": "",
        "Quotit\u00e9": 100,
        "TYPE": "E",
        "SIGLE": "E.P.PU",
        "NOM": "CEZANNE",
        "ADRESSE": "GRAND RUE",
        "COMMUNE": "MONCHECOURT",
        "SUPPORT": "0119",
        "DISCIPLINE": "P0003",
        "CIRCONSCRIPTION": "DOUAI-CANTIN",
        "lat": 50.3226575,
        "lng": 3.2053053,
        "geo": {
            "lat": 50.3226575,
            "lng": 3.2053053
        }
    },
    {
        "N\u00b0POSTE": 170,
        "Nb Postes Vacants": "",
        "Quotit\u00e9": 100,
        "TYPE": "E",
        "SIGLE": "E.P.PU",
        "NOM": "",
        "ADRESSE": "27 CONTOUR DE L EGLISE",
        "COMMUNE": "WEST CAPPEL",
        "SUPPORT": "0119",
        "DISCIPLINE": "P0003",
        "CIRCONSCRIPTION": "DUNKERQUE-BERGUES",
        "lat": 50.9269489,
        "lng": 2.5082622,
        "geo": {
            "lat": 50.9269489,
            "lng": 2.5082622
        }
    },
    {
        "N\u00b0POSTE": 171,
        "Nb Postes Vacants": 1,
        "Quotit\u00e9": 100,
        "TYPE": "E",
        "SIGLE": "E.P.PU",
        "NOM": "DES POMMES (RPI 12)",
        "ADRESSE": "17 ROUTE DE WULT",
        "COMMUNE": "MARESCHES",
        "SUPPORT": "0119",
        "DISCIPLINE": "P0003",
        "CIRCONSCRIPTION": "AVESNES-LE QUESNOY",
        "lat": 50.2952587,
        "lng": 3.5763346,
        "geo": {
            "lat": 50.2952587,
            "lng": 3.5763346
        }
    },
    {
        "N\u00b0POSTE": 172,
        "Nb Postes Vacants": "",
        "Quotit\u00e9": 100,
        "TYPE": "E",
        "SIGLE": "E.P.PU",
        "NOM": "",
        "ADRESSE": "22 CONTOUR DE L'EGLISE",
        "COMMUNE": "VOLCKERINCKHOVE",
        "SUPPORT": "0119",
        "DISCIPLINE": "P0003",
        "CIRCONSCRIPTION": "DUNKERQUE-WORMHOUT",
        "lat": 50.8392589,
        "lng": 2.3064049,
        "geo": {
            "lat": 50.8392589,
            "lng": 2.3064049
        }
    },
    {
        "N\u00b0POSTE": 173,
        "Nb Postes Vacants": "",
        "Quotit\u00e9": 100,
        "TYPE": "E",
        "SIGLE": "E.P.PU",
        "NOM": "",
        "ADRESSE": "430 RUE DES TILLEULS",
        "COMMUNE": "ERINGHEM",
        "SUPPORT": "0119",
        "DISCIPLINE": "P0003",
        "CIRCONSCRIPTION": "DUNKERQUE-BERGUES",
        "lat": 50.8955499,
        "lng": 2.3403594,
        "geo": {
            "lat": 50.8955499,
            "lng": 2.3403594
        }
    },
    {
        "N\u00b0POSTE": 174,
        "Nb Postes Vacants": "",
        "Quotit\u00e9": 100,
        "TYPE": "E",
        "SIGLE": "E.P.PU",
        "NOM": "",
        "ADRESSE": "RUE DU MARAIS",
        "COMMUNE": "BEAUDIGNIES",
        "SUPPORT": "0119",
        "DISCIPLINE": "P0003",
        "CIRCONSCRIPTION": "AVESNES-LE QUESNOY",
        "lat": 50.234227,
        "lng": 3.591208,
        "geo": {
            "lat": 50.234227,
            "lng": 3.591208
        }
    },
    {
        "N\u00b0POSTE": 175,
        "Nb Postes Vacants": "",
        "Quotit\u00e9": 100,
        "TYPE": "E",
        "SIGLE": "E.E.PU",
        "NOM": "",
        "ADRESSE": "RUE DU COMMANDANT DELATTRE",
        "COMMUNE": "CLARY",
        "SUPPORT": "0119",
        "DISCIPLINE": "P0003",
        "CIRCONSCRIPTION": "CAMBRAI-SUD",
        "lat": 50.0766982,
        "lng": 3.3970394,
        "geo": {
            "lat": 50.0766982,
            "lng": 3.3970394
        }
    },
    {
        "N\u00b0POSTE": 176,
        "Nb Postes Vacants": "",
        "Quotit\u00e9": 100,
        "TYPE": "E",
        "SIGLE": "E.P.PU",
        "NOM": "HENRI WALLON",
        "ADRESSE": "88 RUE JEAN JAURES",
        "COMMUNE": "ST VAAST EN CAMBRESIS",
        "SUPPORT": "0119",
        "DISCIPLINE": "P0003",
        "CIRCONSCRIPTION": "CAMBRAI-LE CATEAU",
        "lat": 50.1918555,
        "lng": 3.4234005,
        "geo": {
            "lat": 50.1918555,
            "lng": 3.4234005
        }
    },
    {
        "N\u00b0POSTE": 177,
        "Nb Postes Vacants": "",
        "Quotit\u00e9": 100,
        "TYPE": "E",
        "SIGLE": "E.P.PU",
        "NOM": "GEORGES PAMART",
        "ADRESSE": "80 RUE JEAN MONNET",
        "COMMUNE": "QUERENAING",
        "SUPPORT": "0119",
        "DISCIPLINE": "P0003",
        "CIRCONSCRIPTION": "VALENCIENNES-SAINT SAULVE",
        "lat": 50.2882962,
        "lng": 3.5134972,
        "geo": {
            "lat": 50.2882962,
            "lng": 3.5134972
        }
    },
    {
        "N\u00b0POSTE": 178,
        "Nb Postes Vacants": "",
        "Quotit\u00e9": 100,
        "TYPE": "E",
        "SIGLE": "E.P.PU",
        "NOM": "",
        "ADRESSE": "36 RUE D HOUDRINGUE",
        "COMMUNE": "AUBERS",
        "SUPPORT": "0119",
        "DISCIPLINE": "P0003",
        "CIRCONSCRIPTION": "LILLE2-ANNOEULLIN",
        "lat": 50.5972068,
        "lng": 2.8305184,
        "geo": {
            "lat": 50.5972068,
            "lng": 2.8305184
        }
    },
    {
        "N\u00b0POSTE": 179,
        "Nb Postes Vacants": "",
        "Quotit\u00e9": 100,
        "TYPE": "E",
        "SIGLE": "E.P.PU",
        "NOM": "CAMILLE DESMOULINS",
        "ADRESSE": "126 RUE DE SAINT AMAND",
        "COMMUNE": "MOUCHIN",
        "SUPPORT": "0119",
        "DISCIPLINE": "P0003",
        "CIRCONSCRIPTION": "DOUAI-RIEULAY",
        "lat": 50.5178073,
        "lng": 3.2927048,
        "geo": {
            "lat": 50.5178073,
            "lng": 3.2927048
        }
    },
    {
        "N\u00b0POSTE": 180,
        "Nb Postes Vacants": "",
        "Quotit\u00e9": 100,
        "TYPE": "E",
        "SIGLE": "E.P.PU",
        "NOM": "",
        "ADRESSE": "LA PLACE",
        "COMMUNE": "LEDERZEELE",
        "SUPPORT": "0119",
        "DISCIPLINE": "P0003",
        "CIRCONSCRIPTION": "DUNKERQUE-WORMHOUT",
        "lat": 50.823759,
        "lng": 2.30096,
        "geo": {
            "lat": 50.823759,
            "lng": 2.30096
        }
    },
    {
        "N\u00b0POSTE": 181,
        "Nb Postes Vacants": "",
        "Quotit\u00e9": 100,
        "TYPE": "E",
        "SIGLE": "E.P.PU",
        "NOM": "",
        "ADRESSE": "GRAND PLACE",
        "COMMUNE": "BRIASTRE",
        "SUPPORT": "0119",
        "DISCIPLINE": "P0003",
        "CIRCONSCRIPTION": "CAMBRAI-LE CATEAU",
        "lat": 50.8467316,
        "lng": 4.3524138,
        "geo": {
            "lat": 50.8467316,
            "lng": 4.3524138
        }
    },
    {
        "N\u00b0POSTE": 182,
        "Nb Postes Vacants": "",
        "Quotit\u00e9": 100,
        "TYPE": "E",
        "SIGLE": "E.P.PU",
        "NOM": "",
        "ADRESSE": "4 RUE D ORS",
        "COMMUNE": "LE FAVRIL",
        "SUPPORT": "0119",
        "DISCIPLINE": "P0003",
        "CIRCONSCRIPTION": "AVESNES AULNOYE",
        "lat": 50.1032008,
        "lng": 3.7191659,
        "geo": {
            "lat": 50.1032008,
            "lng": 3.7191659
        }
    },
    {
        "N\u00b0POSTE": 183,
        "Nb Postes Vacants": "",
        "Quotit\u00e9": 100,
        "TYPE": "E",
        "SIGLE": "E.P.PU",
        "NOM": "CHARLES DEULIN",
        "ADRESSE": "15 RUE DE LA MAIRIE",
        "COMMUNE": "ERCHIN",
        "SUPPORT": "0119",
        "DISCIPLINE": "P0003",
        "CIRCONSCRIPTION": "DOUAI-CANTIN",
        "lat": 50.3178314,
        "lng": 3.1673244,
        "geo": {
            "lat": 50.3178314,
            "lng": 3.1673244
        }
    },
    {
        "N\u00b0POSTE": 184,
        "Nb Postes Vacants": "",
        "Quotit\u00e9": 100,
        "TYPE": "E",
        "SIGLE": "E.P.PU",
        "NOM": "CENTRE",
        "ADRESSE": "5 RUE WILLOT",
        "COMMUNE": "TAISNIERES SUR HON",
        "SUPPORT": "0119",
        "DISCIPLINE": "P0003",
        "CIRCONSCRIPTION": "AVESNES-LE QUESNOY",
        "lat": 50.3191808,
        "lng": 3.833571,
        "geo": {
            "lat": 50.3191808,
            "lng": 3.833571
        }
    },
    {
        "N\u00b0POSTE": 185,
        "Nb Postes Vacants": "",
        "Quotit\u00e9": 100,
        "TYPE": "E",
        "SIGLE": "E.E.PU",
        "NOM": "",
        "ADRESSE": "12 BIS RUE DES POILUS",
        "COMMUNE": "MARETZ",
        "SUPPORT": "0119",
        "DISCIPLINE": "P0003",
        "CIRCONSCRIPTION": "CAMBRAI-SUD",
        "lat": 50.0445479,
        "lng": 3.4181849,
        "geo": {
            "lat": 50.0445479,
            "lng": 3.4181849
        }
    },
    {
        "N\u00b0POSTE": 186,
        "Nb Postes Vacants": "",
        "Quotit\u00e9": 100,
        "TYPE": "E",
        "SIGLE": "E.P.PU",
        "NOM": "",
        "ADRESSE": "12 GRAND'RUE",
        "COMMUNE": "BAZUEL",
        "SUPPORT": "0119",
        "DISCIPLINE": "P0003",
        "CIRCONSCRIPTION": "CAMBRAI-LE CATEAU",
        "lat": 50.0913861,
        "lng": 3.5922821,
        "geo": {
            "lat": 50.0913861,
            "lng": 3.5922821
        }
    },
    {
        "N\u00b0POSTE": 187,
        "Nb Postes Vacants": "",
        "Quotit\u00e9": 100,
        "TYPE": "E",
        "SIGLE": "E.P.PU",
        "NOM": "",
        "ADRESSE": "13 RUE DE GUISE",
        "COMMUNE": "LA GROISE",
        "SUPPORT": "0119",
        "DISCIPLINE": "P0003",
        "CIRCONSCRIPTION": "AVESNES AULNOYE",
        "lat": 50.0742255,
        "lng": 3.680903599999999,
        "geo": {
            "lat": 50.0742255,
            "lng": 3.680903599999999
        }
    },
    {
        "N\u00b0POSTE": 188,
        "Nb Postes Vacants": "",
        "Quotit\u00e9": 100,
        "TYPE": "E",
        "SIGLE": "E.P.PU",
        "NOM": "LOUIS MARCY",
        "ADRESSE": "6 RUE ROGER SALENGRO",
        "COMMUNE": "CARNIN",
        "SUPPORT": "0119",
        "DISCIPLINE": "P0003",
        "CIRCONSCRIPTION": "LILLE2-ANNOEULLIN",
        "lat": 50.5187317,
        "lng": 2.9599742,
        "geo": {
            "lat": 50.5187317,
            "lng": 2.9599742
        }
    },
    {
        "N\u00b0POSTE": 189,
        "Nb Postes Vacants": "",
        "Quotit\u00e9": 100,
        "TYPE": "E",
        "SIGLE": "E.E.PU",
        "NOM": "EUGENE PAUWELS",
        "ADRESSE": "1 RUE DES ACACIAS",
        "COMMUNE": "ST AMAND LES EAUX",
        "SUPPORT": "0119",
        "DISCIPLINE": "P0003",
        "CIRCONSCRIPTION": "VALENCIENNES-SAINT AMAND",
        "lat": 50.4531798,
        "lng": 3.4308652,
        "geo": {
            "lat": 50.4531798,
            "lng": 3.4308652
        }
    },
    {
        "N\u00b0POSTE": 190,
        "Nb Postes Vacants": "",
        "Quotit\u00e9": 100,
        "TYPE": "E",
        "SIGLE": "E.P.PU",
        "NOM": "(RPI 7)",
        "ADRESSE": "CONTOUR DE L'EGLISE",
        "COMMUNE": "NOORDPEENE",
        "SUPPORT": "0119",
        "DISCIPLINE": "P0003",
        "CIRCONSCRIPTION": "DUNKERQUE-WORMHOUT",
        "lat": 50.793335,
        "lng": 2.431186,
        "geo": {
            "lat": 50.793335,
            "lng": 2.431186
        }
    },
    {
        "N\u00b0POSTE": 191,
        "Nb Postes Vacants": "",
        "Quotit\u00e9": 100,
        "TYPE": "E",
        "SIGLE": "E.P.PU",
        "NOM": "JEAN-CLAUDE MAHY",
        "ADRESSE": "12 RUE DE FOURMIES",
        "COMMUNE": "FERON",
        "SUPPORT": "0119",
        "DISCIPLINE": "P0004",
        "CIRCONSCRIPTION": "AVESNES-FOURMIES",
        "lat": 50.0435337,
        "lng": 4.0256687,
        "geo": {
            "lat": 50.0435337,
            "lng": 4.0256687
        }
    },
    {
        "N\u00b0POSTE": 192,
        "Nb Postes Vacants": "",
        "Quotit\u00e9": 100,
        "TYPE": "E",
        "SIGLE": "E.P.PU",
        "NOM": "YVES DUTEIL",
        "ADRESSE": "42 PLACE DE L EGLISE",
        "COMMUNE": "ESQUERCHIN",
        "SUPPORT": "0119",
        "DISCIPLINE": "P0004",
        "CIRCONSCRIPTION": "DOUAI-CUINCY",
        "lat": 50.3759479,
        "lng": 3.0140746,
        "geo": {
            "lat": 50.3759479,
            "lng": 3.0140746
        }
    },
    {
        "N\u00b0POSTE": 193,
        "Nb Postes Vacants": "",
        "Quotit\u00e9": 100,
        "TYPE": "E",
        "SIGLE": "E.P.PU",
        "NOM": "MAURICE LENNE",
        "ADRESSE": "711 RUE GABRIEL PERI",
        "COMMUNE": "ANHIERS",
        "SUPPORT": "0119",
        "DISCIPLINE": "P0004",
        "CIRCONSCRIPTION": "DOUAI-CUINCY",
        "lat": 50.4060643,
        "lng": 3.1558662,
        "geo": {
            "lat": 50.4060643,
            "lng": 3.1558662
        }
    },
    {
        "N\u00b0POSTE": 194,
        "Nb Postes Vacants": "",
        "Quotit\u00e9": 100,
        "TYPE": "E",
        "SIGLE": "E.P.PU",
        "NOM": "JEAN DE LA FONTAINE",
        "ADRESSE": "6 RUE JEAN SIMON DUMONT",
        "COMMUNE": "AUBIGNY AU BAC",
        "SUPPORT": "0119",
        "DISCIPLINE": "P0004",
        "CIRCONSCRIPTION": "DOUAI-CANTIN",
        "lat": 50.2620279,
        "lng": 3.1634348,
        "geo": {
            "lat": 50.2620279,
            "lng": 3.1634348
        }
    },
    {
        "N\u00b0POSTE": 195,
        "Nb Postes Vacants": "",
        "Quotit\u00e9": 100,
        "TYPE": "E",
        "SIGLE": "E.E.PU",
        "NOM": "LAMARTINE",
        "ADRESSE": "73 RUE CARNOT",
        "COMMUNE": "BERGUES",
        "SUPPORT": "0119",
        "DISCIPLINE": "P0004",
        "CIRCONSCRIPTION": "DUNKERQUE-BERGUES",
        "lat": 50.96694919999999,
        "lng": 2.4312131,
        "geo": {
            "lat": 50.96694919999999,
            "lng": 2.4312131
        }
    },
    {
        "N\u00b0POSTE": 196,
        "Nb Postes Vacants": 1,
        "Quotit\u00e9": 100,
        "TYPE": "E",
        "SIGLE": "E.P.PU",
        "NOM": "",
        "ADRESSE": "PLACE DES TROIS MAIRES",
        "COMMUNE": "BOIS GRENIER",
        "SUPPORT": "0119",
        "DISCIPLINE": "P0004",
        "CIRCONSCRIPTION": "LILLE2-ARMENTIERES",
        "lat": 50.6491822,
        "lng": 2.8738266,
        "geo": {
            "lat": 50.6491822,
            "lng": 2.8738266
        }
    },
    {
        "N\u00b0POSTE": 197,
        "Nb Postes Vacants": "",
        "Quotit\u00e9": 100,
        "TYPE": "E",
        "SIGLE": "E.P.PU",
        "NOM": "LES FRESNELLES",
        "ADRESSE": "2 RUE DU MARECHAL FOCH",
        "COMMUNE": "BRILLON",
        "SUPPORT": "0119",
        "DISCIPLINE": "P0004",
        "CIRCONSCRIPTION": "VALENCIENNES-SAINT AMAND",
        "lat": 50.4351786,
        "lng": 3.3299295,
        "geo": {
            "lat": 50.4351786,
            "lng": 3.3299295
        }
    },
    {
        "N\u00b0POSTE": 198,
        "Nb Postes Vacants": "",
        "Quotit\u00e9": 100,
        "TYPE": "E",
        "SIGLE": "E.P.PU",
        "NOM": "JEAN DE LA FONTAINE",
        "ADRESSE": "1 RUE DU CIMETIERE",
        "COMMUNE": "CHATEAU L ABBAYE",
        "SUPPORT": "0119",
        "DISCIPLINE": "P0004",
        "CIRCONSCRIPTION": "VALENCIENNES-CONDE",
        "lat": 50.4820867,
        "lng": 3.4771851,
        "geo": {
            "lat": 50.4820867,
            "lng": 3.4771851
        }
    },
    {
        "N\u00b0POSTE": 199,
        "Nb Postes Vacants": "",
        "Quotit\u00e9": 100,
        "TYPE": "E",
        "SIGLE": "E.P.PU",
        "NOM": "GROUPE SCOLAIRE VALMUSE",
        "ADRESSE": "8 RUE D'EN BAS",
        "COMMUNE": "BRUNEMONT",
        "SUPPORT": "0119",
        "DISCIPLINE": "P0004",
        "CIRCONSCRIPTION": "DOUAI-CANTIN",
        "lat": 50.2722391,
        "lng": 3.1398662,
        "geo": {
            "lat": 50.2722391,
            "lng": 3.1398662
        }
    },
    {
        "N\u00b0POSTE": 200,
        "Nb Postes Vacants": 1,
        "Quotit\u00e9": 100,
        "TYPE": "E",
        "SIGLE": "E.P.PU",
        "NOM": "JACQUES BREL",
        "ADRESSE": "11 RUE DU COMTE D'ARTOIS",
        "COMMUNE": "CAMBRAI",
        "SUPPORT": "0119",
        "DISCIPLINE": "P0004",
        "CIRCONSCRIPTION": "CAMBRAI-CENTRE",
        "lat": 50.1791507,
        "lng": 3.2184132,
        "geo": {
            "lat": 50.1791507,
            "lng": 3.2184132
        }
    },